{"type":"FeatureCollection","features":[{"type":"Feature","geometry":{"type":"Point","coordinates":[4.8575769,52.3384028]},"properties":{"name":"Amstelveenseweg (1)","description":"","_styleId":"metro"}},{"type":"Feature","geometry":{"type":"Point","coordinates":[4.9175567,52.3464656]},"properties":{"name":"Amsterdam Amstel","description":"","_styleId":"metro"}},{"type":"Feature","geometry":{"type":"Point","coordinates":[4.9470883,52.3122449]},"properties":{"name":"Amsterdam Bijlmer ArenA","description":"","_styleId":"metro"}},{"type":"Feature","geometry":{"type":"Point","coordinates":[4.9601712,52.2979886]},"properties":{"name":"Amsterdam Holendrecht","description":"","_styleId":"metro"}},{"type":"Feature","geometry":{"type":"Point","coordinates":[4.8340268,52.3578369]},"properties":{"name":"Amsterdam Lelylaan","description":"","_styleId":"metro"}},{"type":"Feature","geometry":{"type":"Point","coordinates":[4.9521292,52.306869]},"properties":{"name":"Bullewijk","description":"","_styleId":"metro"}},{"type":"Feature","geometry":{"type":"Point","coordinates":[4.9009578,52.3774316]},"properties":{"name":"Centraal Station (1)","description":"","_styleId":"metro"}},{"type":"Feature","geometry":{"type":"Point","coordinates":[4.8906926,52.3539754]},"properties":{"name":"De Pijp (1)","description":"","_styleId":"metro"}},{"type":"Feature","geometry":{"type":"Point","coordinates":[4.8382223,52.3796134]},"properties":{"name":"De Vlugtlaan","description":"","_styleId":"metro"}},{"type":"Feature","geometry":{"type":"Point","coordinates":[4.9560598,52.3302613]},"properties":{"name":"Diemen Zuid","description":"","_styleId":"metro"}},{"type":"Feature","geometry":{"type":"Point","coordinates":[4.9365267,52.3235787]},"properties":{"name":"Duivendrecht","description":"","_styleId":"metro"}},{"type":"Feature","geometry":{"type":"Point","coordinates":[4.8914727,52.3416064]},"properties":{"name":"Europaplein (1)","description":"","_styleId":"metro"}},{"type":"Feature","geometry":{"type":"Point","coordinates":[4.9843223,52.3113175]},"properties":{"name":"Gaasperplas","description":"","_styleId":"metro"}},{"type":"Feature","geometry":{"type":"Point","coordinates":[4.9735502,52.3230792]},"properties":{"name":"Ganzenhoef","description":"","_styleId":"metro"}},{"type":"Feature","geometry":{"type":"Point","coordinates":[4.9891612,52.2964067]},"properties":{"name":"Gein","description":"","_styleId":"metro"}},{"type":"Feature","geometry":{"type":"Point","coordinates":[4.8343026,52.3524713]},"properties":{"name":"Heemstedestraat (1)","description":"","_styleId":"metro"}},{"type":"Feature","geometry":{"type":"Point","coordinates":[4.8345025,52.3464029]},"properties":{"name":"Henk Sneevlietweg","description":"","_styleId":"metro"}},{"type":"Feature","geometry":{"type":"Point","coordinates":[4.8507911,52.3951713]},"properties":{"name":"Isolatorweg","description":"","_styleId":"metro"}},{"type":"Feature","geometry":{"type":"Point","coordinates":[4.8352937,52.3726582]},"properties":{"name":"Jan van Galenstraat (1)","description":"","_styleId":"metro"}},{"type":"Feature","geometry":{"type":"Point","coordinates":[4.9791233,52.3170313]},"properties":{"name":"Kraaiennest","description":"","_styleId":"metro"}},{"type":"Feature","geometry":{"type":"Point","coordinates":[4.9008788,52.3713176]},"properties":{"name":"Nieuwmarkt","description":"","_styleId":"metro"}},{"type":"Feature","geometry":{"type":"Point","coordinates":[4.9323589,52.4019931]},"properties":{"name":"Noord","description":"","_styleId":"metro"}},{"type":"Feature","geometry":{"type":"Point","coordinates":[4.9187004,52.3889316]},"properties":{"name":"Noorderpark","description":"","_styleId":"metro"}},{"type":"Feature","geometry":{"type":"Point","coordinates":[4.9176266,52.3317318]},"properties":{"name":"Overamstel","description":"","_styleId":"metro"}},{"type":"Feature","geometry":{"type":"Point","coordinates":[4.8339612,52.3642921]},"properties":{"name":"Postjesweg (1)","description":"","_styleId":"metro"}},{"type":"Feature","geometry":{"type":"Point","coordinates":[4.9744218,52.2956478]},"properties":{"name":"Reigersbos","description":"","_styleId":"metro"}},{"type":"Feature","geometry":{"type":"Point","coordinates":[4.9210115,52.3399595]},"properties":{"name":"Spaklerweg","description":"","_styleId":"metro"}},{"type":"Feature","geometry":{"type":"Point","coordinates":[4.8893261,52.3377124]},"properties":{"name":"Station RAI (1)","description":"","_styleId":"metro"}},{"type":"Feature","geometry":{"type":"Point","coordinates":[4.838877,52.3890161]},"properties":{"name":"Station Sloterdijk (1)","description":"","_styleId":"metro"}},{"type":"Feature","geometry":{"type":"Point","coordinates":[4.9413977,52.3186119]},"properties":{"name":"Strandvliet","description":"","_styleId":"metro"}},{"type":"Feature","geometry":{"type":"Point","coordinates":[4.9305189,52.3294483]},"properties":{"name":"Van der Madeweg","description":"","_styleId":"metro"}},{"type":"Feature","geometry":{"type":"Point","coordinates":[4.9463398,52.3267669]},"properties":{"name":"Venserpolder","description":"","_styleId":"metro"}},{"type":"Feature","geometry":{"type":"Point","coordinates":[4.9662522,52.328939]},"properties":{"name":"Verrijn Stuartweg","description":"","_styleId":"metro"}},{"type":"Feature","geometry":{"type":"Point","coordinates":[4.8911646,52.3608169]},"properties":{"name":"Vijzelgracht (1)","description":"","_styleId":"metro"}},{"type":"Feature","geometry":{"type":"Point","coordinates":[4.9036061,52.3666262]},"properties":{"name":"Waterlooplein (1)","description":"","_styleId":"metro"}},{"type":"Feature","geometry":{"type":"Point","coordinates":[4.9079182,52.3613263]},"properties":{"name":"Weesperplein (1)","description":"","_styleId":"metro"}},{"type":"Feature","geometry":{"type":"Point","coordinates":[4.9120486,52.3545947]},"properties":{"name":"Wibautstraat (1)","description":"","_styleId":"metro"}},{"type":"Feature","geometry":{"type":"Point","coordinates":[4.8746127,52.3392032]},"properties":{"name":"Zuid","description":"","_styleId":"metro"}},{"type":"Feature","geometry":{"type":"Point","coordinates":[4.8688694,52.332589]},"properties":{"name":"A. J. Ernststraat","description":"","_styleId":"tram"}},{"type":"Feature","geometry":{"type":"Point","coordinates":[4.8600128,52.371502]},"properties":{"name":"Admiraal De Ruijterweg","description":"","_styleId":"tram"}},{"type":"Feature","geometry":{"type":"Point","coordinates":[4.8446631,52.3694262]},"properties":{"name":"Admiraal Helfrichstraat","description":"","_styleId":"tram"}},{"type":"Feature","geometry":{"type":"Point","coordinates":[4.8994017,52.3575783]},"properties":{"name":"Albert Cuypstraat","description":"","_styleId":"tram"}},{"type":"Feature","geometry":{"type":"Point","coordinates":[4.9193627,52.3635043]},"properties":{"name":"Alexanderplein","description":"","_styleId":"tram"}},{"type":"Feature","geometry":{"type":"Point","coordinates":[4.9109989,52.3471106]},"properties":{"name":"Amsteldijk","description":"","_styleId":"tram"}},{"type":"Feature","geometry":{"type":"Point","coordinates":[4.904043,52.34941]},"properties":{"name":"Amstelkade","description":"","_styleId":"tram"}},{"type":"Feature","geometry":{"type":"Point","coordinates":[4.9178945,52.347445]},"properties":{"name":"Amstelstation","description":"","_styleId":"tram"}},{"type":"Feature","geometry":{"type":"Point","coordinates":[4.8572486,52.338422]},"properties":{"name":"Amstelveenseweg (2)","description":"","_styleId":"tram"}},{"type":"Feature","geometry":{"type":"Point","coordinates":[4.9555768,52.3393768]},"properties":{"name":"Arent Krijtsstraat","description":"","_styleId":"tram"}},{"type":"Feature","geometry":{"type":"Point","coordinates":[4.910955,52.3667187]},"properties":{"name":"Artis","description":"","_styleId":"tram"}},{"type":"Feature","geometry":{"type":"Point","coordinates":[4.9124417,52.3671549]},"properties":{"name":"Artis/Holocaustmuseum","description":"","_styleId":"tram"}},{"type":"Feature","geometry":{"type":"Point","coordinates":[4.9373469,52.3768181]},"properties":{"name":"Azartplein","description":"","_styleId":"tram"}},{"type":"Feature","geometry":{"type":"Point","coordinates":[4.7951129,52.3510417]},"properties":{"name":"Baden Powellweg","description":"","_styleId":"tram"}},{"type":"Feature","geometry":{"type":"Point","coordinates":[4.8762769,52.3468693]},"properties":{"name":"Beethovenstraat","description":"","_styleId":"tram"}},{"type":"Feature","geometry":{"type":"Point","coordinates":[4.9167422,52.3590732]},"properties":{"name":"Beukenweg","description":"","_styleId":"tram"}},{"type":"Feature","geometry":{"type":"Point","coordinates":[4.8708148,52.3710541]},"properties":{"name":"Bilderdijkstraat","description":"","_styleId":"tram"}},{"type":"Feature","geometry":{"type":"Point","coordinates":[4.8763837,52.3742782]},"properties":{"name":"Bloemgracht","description":"","_styleId":"tram"}},{"type":"Feature","geometry":{"type":"Point","coordinates":[4.9688689,52.3689627]},"properties":{"name":"Bob Haarmslaan","description":"","_styleId":"tram"}},{"type":"Feature","geometry":{"type":"Point","coordinates":[4.8464234,52.3771934]},"properties":{"name":"Bos en Lommerplein","description":"","_styleId":"tram"}},{"type":"Feature","geometry":{"type":"Point","coordinates":[4.8539004,52.3811188]},"properties":{"name":"Bos en Lommerweg","description":"","_styleId":"tram"}},{"type":"Feature","geometry":{"type":"Point","coordinates":[4.9474911,52.3432024]},"properties":{"name":"Brinkstraat","description":"","_styleId":"tram"}},{"type":"Feature","geometry":{"type":"Point","coordinates":[4.8258104,52.38075]},"properties":{"name":"Burgemeester Eliasstraat","description":"","_styleId":"tram"}},{"type":"Feature","geometry":{"type":"Point","coordinates":[4.8312794,52.3798913]},"properties":{"name":"Burgemeester Fockstraat","description":"","_styleId":"tram"}},{"type":"Feature","geometry":{"type":"Point","coordinates":[4.8277027,52.3743645]},"properties":{"name":"Burgemeester Rendorpstraat","description":"","_styleId":"tram"}},{"type":"Feature","geometry":{"type":"Point","coordinates":[4.8185432,52.3745804]},"properties":{"name":"Burgemeester Ro\u00ebllstraat","description":"","_styleId":"tram"}},{"type":"Feature","geometry":{"type":"Point","coordinates":[4.8119642,52.3763846]},"properties":{"name":"Burgemeester Van Leeuwenlaan","description":"","_styleId":"tram"}},{"type":"Feature","geometry":{"type":"Point","coordinates":[4.8382938,52.3787581]},"properties":{"name":"Burgemeester de Vlugtlaan","description":"","_styleId":"tram"}},{"type":"Feature","geometry":{"type":"Point","coordinates":[4.9388456,52.3735665]},"properties":{"name":"C. van Eesterenlaan","description":"","_styleId":"tram"}},{"type":"Feature","geometry":{"type":"Point","coordinates":[4.9134821,52.358335]},"properties":{"name":"Camperstraat","description":"","_styleId":"tram"}},{"type":"Feature","geometry":{"type":"Point","coordinates":[4.9010669,52.3550346]},"properties":{"name":"Ceintuurbaan","description":"","_styleId":"tram"}},{"type":"Feature","geometry":{"type":"Point","coordinates":[4.9003819,52.3778942]},"properties":{"name":"Centraal Station (2)","description":"","_styleId":"tram"}},{"type":"Feature","geometry":{"type":"Point","coordinates":[4.8110474,52.3463857]},"properties":{"name":"Centrum Nieuw Sloten","description":"","_styleId":"tram"}},{"type":"Feature","geometry":{"type":"Point","coordinates":[4.8796377,52.3566951]},"properties":{"name":"Concertgebouw","description":"","_styleId":"tram"}},{"type":"Feature","geometry":{"type":"Point","coordinates":[4.8532957,52.3617312]},"properties":{"name":"Corantijnstraat","description":"","_styleId":"tram"}},{"type":"Feature","geometry":{"type":"Point","coordinates":[4.870782,52.3560251]},"properties":{"name":"Cornelis Schuytstraat","description":"","_styleId":"tram"}},{"type":"Feature","geometry":{"type":"Point","coordinates":[4.8506975,52.3586176]},"properties":{"name":"Cura\u00e7aostraat","description":"","_styleId":"tram"}},{"type":"Feature","geometry":{"type":"Point","coordinates":[4.8936441,52.3735332]},"properties":{"name":"Dam","description":"","_styleId":"tram"}},{"type":"Feature","geometry":{"type":"Point","coordinates":[4.9289422,52.3609314]},"properties":{"name":"Dapperstraat","description":"","_styleId":"tram"}},{"type":"Feature","geometry":{"type":"Point","coordinates":[4.8659833,52.3352308]},"properties":{"name":"De Boelelaan/VU","description":"","_styleId":"tram"}},{"type":"Feature","geometry":{"type":"Point","coordinates":[4.8705518,52.3712485]},"properties":{"name":"De Clercqstraat","description":"","_styleId":"tram"}},{"type":"Feature","geometry":{"type":"Point","coordinates":[4.8905961,52.3527058]},"properties":{"name":"De Pijp (2)","description":"","_styleId":"tram"}},{"type":"Feature","geometry":{"type":"Point","coordinates":[4.8577243,52.3773555]},"properties":{"name":"De Rijpstraat","description":"","_styleId":"tram"}},{"type":"Feature","geometry":{"type":"Point","coordinates":[4.8770204,52.3832175]},"properties":{"name":"De Wittenkade","description":"","_styleId":"tram"}},{"type":"Feature","geometry":{"type":"Point","coordinates":[4.8416382,52.3515418]},"properties":{"name":"Delflandlaan","description":"","_styleId":"tram"}},{"type":"Feature","geometry":{"type":"Point","coordinates":[4.8401257,52.3579358]},"properties":{"name":"Derkinderenstraat","description":"","_styleId":"tram"}},{"type":"Feature","geometry":{"type":"Point","coordinates":[4.9613021,52.3382375]},"properties":{"name":"Diemerbrug","description":"","_styleId":"tram"}},{"type":"Feature","geometry":{"type":"Point","coordinates":[4.9946247,52.3555154]},"properties":{"name":"Diemerparklaan","description":"","_styleId":"tram"}},{"type":"Feature","geometry":{"type":"Point","coordinates":[4.7870176,52.3555825]},"properties":{"name":"Dijkgraafplein","description":"","_styleId":"tram"}},{"type":"Feature","geometry":{"type":"Point","coordinates":[4.8930007,52.341925]},"properties":{"name":"Dintelstraat","description":"","_styleId":"tram"}},{"type":"Feature","geometry":{"type":"Point","coordinates":[4.8071867,52.3768507]},"properties":{"name":"Doctor H. Colijnstraat","description":"","_styleId":"tram"}},{"type":"Feature","geometry":{"type":"Point","coordinates":[4.889801,52.3362207]},"properties":{"name":"Drentepark","description":"","_styleId":"tram"}},{"type":"Feature","geometry":{"type":"Point","coordinates":[4.7888748,52.3498075]},"properties":{"name":"Ecuplein","description":"","_styleId":"tram"}},{"type":"Feature","geometry":{"type":"Point","coordinates":[4.9263002,52.3681426]},"properties":{"name":"Eerste Coehoornstraat","description":"","_styleId":"tram"}},{"type":"Feature","geometry":{"type":"Point","coordinates":[4.9293975,52.3700769]},"properties":{"name":"Eerste Leeghwaterstraat","description":"","_styleId":"tram"}},{"type":"Feature","geometry":{"type":"Point","coordinates":[4.9238286,52.3621936]},"properties":{"name":"Eerste Van Swindenstraat","description":"","_styleId":"tram"}},{"type":"Feature","geometry":{"type":"Point","coordinates":[4.8775361,52.3695206]},"properties":{"name":"Elandsgracht","description":"","_styleId":"tram"}},{"type":"Feature","geometry":{"type":"Point","coordinates":[4.8695155,52.3529363]},"properties":{"name":"Emmastraat","description":"","_styleId":"tram"}},{"type":"Feature","geometry":{"type":"Point","coordinates":[4.8469734,52.3763312]},"properties":{"name":"Erasmusgracht","description":"","_styleId":"tram"}},{"type":"Feature","geometry":{"type":"Point","coordinates":[4.8921974,52.3402318]},"properties":{"name":"Europaplein (2)","description":"","_styleId":"tram"}},{"type":"Feature","geometry":{"type":"Point","coordinates":[4.9520639,52.3652037]},"properties":{"name":"Flevopark","description":"","_styleId":"tram"}},{"type":"Feature","geometry":{"type":"Point","coordinates":[4.875268,52.3784783]},"properties":{"name":"Frederik Hendrikplantsoen","description":"","_styleId":"tram"}},{"type":"Feature","geometry":{"type":"Point","coordinates":[4.8990837,52.3599361]},"properties":{"name":"Frederiksplein","description":"","_styleId":"tram"}},{"type":"Feature","geometry":{"type":"Point","coordinates":[4.8771911,52.3488198]},"properties":{"name":"Gerrit van der Veenstraat","description":"","_styleId":"tram"}},{"type":"Feature","geometry":{"type":"Point","coordinates":[4.8575492,52.3492152]},"properties":{"name":"Haarlemmermeerstation","description":"","_styleId":"tram"}},{"type":"Feature","geometry":{"type":"Point","coordinates":[4.8342872,52.3514907]},"properties":{"name":"Heemstedestraat (2)","description":"","_styleId":"tram"}},{"type":"Feature","geometry":{"type":"Point","coordinates":[4.8025242,52.3525411]},"properties":{"name":"Hoekenes","description":"","_styleId":"tram"}},{"type":"Feature","geometry":{"type":"Point","coordinates":[4.9308725,52.353568]},"properties":{"name":"Hogeweg","description":"","_styleId":"tram"}},{"type":"Feature","geometry":{"type":"Point","coordinates":[4.8501741,52.3515256]},"properties":{"name":"Hoofddorpplein","description":"","_styleId":"tram"}},{"type":"Feature","geometry":{"type":"Point","coordinates":[4.853975,52.3642479]},"properties":{"name":"Hoofdweg","description":"","_styleId":"tram"}},{"type":"Feature","geometry":{"type":"Point","coordinates":[4.9248123,52.3668676]},"properties":{"name":"Hoogte Kadijk","description":"","_styleId":"tram"}},{"type":"Feature","geometry":{"type":"Point","coordinates":[4.8729548,52.3750097]},"properties":{"name":"Hugo de Grootplein","description":"","_styleId":"tram"}},{"type":"Feature","geometry":{"type":"Point","coordinates":[4.935404,52.3507313]},"properties":{"name":"Hugo de Vrieslaan","description":"","_styleId":"tram"}},{"type":"Feature","geometry":{"type":"Point","coordinates":[5.0048281,52.3511114]},"properties":{"name":"IJburg","description":"","_styleId":"tram"}},{"type":"Feature","geometry":{"type":"Point","coordinates":[4.8524016,52.3411779]},"properties":{"name":"IJsbaanpad","description":"","_styleId":"tram"}},{"type":"Feature","geometry":{"type":"Point","coordinates":[4.7836582,52.3501979]},"properties":{"name":"Inaristraat","description":"","_styleId":"tram"}},{"type":"Feature","geometry":{"type":"Point","coordinates":[4.9476342,52.3647569]},"properties":{"name":"Insulindeweg","description":"","_styleId":"tram"}},{"type":"Feature","geometry":{"type":"Point","coordinates":[4.8666219,52.3605256]},"properties":{"name":"Jan Pieter Heijestraat","description":"","_styleId":"tram"}},{"type":"Feature","geometry":{"type":"Point","coordinates":[4.8381341,52.3716278]},"properties":{"name":"Jan Tooropstraat","description":"","_styleId":"tram"}},{"type":"Feature","geometry":{"type":"Point","coordinates":[4.8384594,52.3695968]},"properties":{"name":"Jan Voermanstraat","description":"","_styleId":"tram"}},{"type":"Feature","geometry":{"type":"Point","coordinates":[4.8509865,52.3442966]},"properties":{"name":"Jan Wilsbrug","description":"","_styleId":"tram"}},{"type":"Feature","geometry":{"type":"Point","coordinates":[4.8584711,52.3751323]},"properties":{"name":"Jan van Galenstraat (2)","description":"","_styleId":"tram"}},{"type":"Feature","geometry":{"type":"Point","coordinates":[4.9385662,52.3640547]},"properties":{"name":"Javaplein","description":"","_styleId":"tram"}},{"type":"Feature","geometry":{"type":"Point","coordinates":[4.8275024,52.3491038]},"properties":{"name":"Johan Huizingalaan","description":"","_styleId":"tram"}},{"type":"Feature","geometry":{"type":"Point","coordinates":[4.8544501,52.3352796]},"properties":{"name":"Jollenpad","description":"","_styleId":"tram"}},{"type":"Feature","geometry":{"type":"Point","coordinates":[4.8565037,52.3218182]},"properties":{"name":"Kalfjeslaan","description":"","_styleId":"tram"}},{"type":"Feature","geometry":{"type":"Point","coordinates":[4.8569721,52.3788687]},"properties":{"name":"Karel Doormanstraat","description":"","_styleId":"tram"}},{"type":"Feature","geometry":{"type":"Point","coordinates":[4.9220599,52.3760656]},"properties":{"name":"Kattenburgerstraat","description":"","_styleId":"tram"}},{"type":"Feature","geometry":{"type":"Point","coordinates":[4.8983188,52.3638329]},"properties":{"name":"Keizersgracht","description":"","_styleId":"tram"}},{"type":"Feature","geometry":{"type":"Point","coordinates":[4.8722954,52.3670831]},"properties":{"name":"Kinkerstraat","description":"","_styleId":"tram"}},{"type":"Feature","geometry":{"type":"Point","coordinates":[4.8560952,52.3305598]},"properties":{"name":"Koenenkade","description":"","_styleId":"tram"}},{"type":"Feature","geometry":{"type":"Point","coordinates":[4.8889914,52.3680424]},"properties":{"name":"Koningsplein","description":"","_styleId":"tram"}},{"type":"Feature","geometry":{"type":"Point","coordinates":[4.9135923,52.3623479]},"properties":{"name":"Korte 's-Gravesandestraat","description":"","_styleId":"tram"}},{"type":"Feature","geometry":{"type":"Point","coordinates":[4.9398853,52.3479273]},"properties":{"name":"Kruislaan","description":"","_styleId":"tram"}},{"type":"Feature","geometry":{"type":"Point","coordinates":[4.8156883,52.3464422]},"properties":{"name":"Laan van Vlaanderen","description":"","_styleId":"tram"}},{"type":"Feature","geometry":{"type":"Point","coordinates":[4.8029137,52.377278]},"properties":{"name":"Lambertus Zijlplein","description":"","_styleId":"tram"}},{"type":"Feature","geometry":{"type":"Point","coordinates":[4.883062,52.3634456]},"properties":{"name":"Leidseplein","description":"","_styleId":"tram"}},{"type":"Feature","geometry":{"type":"Point","coordinates":[4.9257029,52.3601162]},"properties":{"name":"Linnaeusstraat","description":"","_styleId":"tram"}},{"type":"Feature","geometry":{"type":"Point","coordinates":[4.8090899,52.3539266]},"properties":{"name":"Louis Davidsstraat","description":"","_styleId":"tram"}},{"type":"Feature","geometry":{"type":"Point","coordinates":[4.8242594,52.3466865]},"properties":{"name":"Louwesweg","description":"","_styleId":"tram"}},{"type":"Feature","geometry":{"type":"Point","coordinates":[5.0002302,52.3525961]},"properties":{"name":"Lumi\u00e8restraat","description":"","_styleId":"tram"}},{"type":"Feature","geometry":{"type":"Point","coordinates":[4.90332,52.3514501]},"properties":{"name":"Lutmastraat","description":"","_styleId":"tram"}},{"type":"Feature","geometry":{"type":"Point","coordinates":[4.8962714,52.3428638]},"properties":{"name":"Maasstraat","description":"","_styleId":"tram"}},{"type":"Feature","geometry":{"type":"Point","coordinates":[4.8554942,52.3709604]},"properties":{"name":"Marco Polostraat","description":"","_styleId":"tram"}},{"type":"Feature","geometry":{"type":"Point","coordinates":[4.8907033,52.3570037]},"properties":{"name":"Marie Heinekenplein","description":"","_styleId":"tram"}},{"type":"Feature","geometry":{"type":"Point","coordinates":[4.8784155,52.3773658]},"properties":{"name":"Marnixplein","description":"","_styleId":"tram"}},{"type":"Feature","geometry":{"type":"Point","coordinates":[4.8763385,52.3723364]},"properties":{"name":"Marnixstraat","description":"","_styleId":"tram"}},{"type":"Feature","geometry":{"type":"Point","coordinates":[4.7747567,52.3537327]},"properties":{"name":"Matterhorn","description":"","_styleId":"tram"}},{"type":"Feature","geometry":{"type":"Point","coordinates":[4.9206416,52.3630235]},"properties":{"name":"Mauritskade","description":"","_styleId":"tram"}},{"type":"Feature","geometry":{"type":"Point","coordinates":[4.8107529,52.3565093]},"properties":{"name":"Meer en Vaart","description":"","_styleId":"tram"}},{"type":"Feature","geometry":{"type":"Point","coordinates":[4.9053602,52.3679611]},"properties":{"name":"Meester Visserplein","description":"","_styleId":"tram"}},{"type":"Feature","geometry":{"type":"Point","coordinates":[4.8507957,52.3701459]},"properties":{"name":"Mercatorplein","description":"","_styleId":"tram"}},{"type":"Feature","geometry":{"type":"Point","coordinates":[4.8730291,52.3467738]},"properties":{"name":"Minervaplein","description":"","_styleId":"tram"}},{"type":"Feature","geometry":{"type":"Point","coordinates":[4.8460808,52.3858873]},"properties":{"name":"Molenwerf","description":"","_styleId":"tram"}},{"type":"Feature","geometry":{"type":"Point","coordinates":[4.9401785,52.3617259]},"properties":{"name":"Molukkenstraat","description":"","_styleId":"tram"}},{"type":"Feature","geometry":{"type":"Point","coordinates":[4.9328494,52.3612127]},"properties":{"name":"Muiderpoortstation","description":"","_styleId":"tram"}},{"type":"Feature","geometry":{"type":"Point","coordinates":[4.8931342,52.3662653]},"properties":{"name":"Muntplein","description":"","_styleId":"tram"}},{"type":"Feature","geometry":{"type":"Point","coordinates":[4.8812446,52.358854]},"properties":{"name":"Museumplein","description":"","_styleId":"tram"}},{"type":"Feature","geometry":{"type":"Point","coordinates":[4.9134308,52.3772063]},"properties":{"name":"Muziekgebouw","description":"","_styleId":"tram"}},{"type":"Feature","geometry":{"type":"Point","coordinates":[4.8792047,52.3813125]},"properties":{"name":"Nassaukade","description":"","_styleId":"tram"}},{"type":"Feature","geometry":{"type":"Point","coordinates":[4.8653608,52.3654149]},"properties":{"name":"Nicolaas Beetsstraat","description":"","_styleId":"tram"}},{"type":"Feature","geometry":{"type":"Point","coordinates":[4.8809562,52.381394]},"properties":{"name":"Nieuwe Willemsstraat","description":"","_styleId":"tram"}},{"type":"Feature","geometry":{"type":"Point","coordinates":[4.8946766,52.3768269]},"properties":{"name":"Nieuwezijds Kolk","description":"","_styleId":"tram"}},{"type":"Feature","geometry":{"type":"Point","coordinates":[4.8658574,52.3463018]},"properties":{"name":"Olympiaplein","description":"","_styleId":"tram"}},{"type":"Feature","geometry":{"type":"Point","coordinates":[4.8583402,52.3452652]},"properties":{"name":"Olympiaweg","description":"","_styleId":"tram"}},{"type":"Feature","geometry":{"type":"Point","coordinates":[4.8568368,52.3440249]},"properties":{"name":"Olympisch Stadion","description":"","_styleId":"tram"}},{"type":"Feature","geometry":{"type":"Point","coordinates":[4.9272293,52.3570067]},"properties":{"name":"Oostpoort","description":"","_styleId":"tram"}},{"type":"Feature","geometry":{"type":"Point","coordinates":[4.8553753,52.3549726]},"properties":{"name":"Oranje Nassaulaan","description":"","_styleId":"tram"}},{"type":"Feature","geometry":{"type":"Point","coordinates":[4.8077454,52.359326]},"properties":{"name":"Osdorpplein Oost","description":"","_styleId":"tram"}},{"type":"Feature","geometry":{"type":"Point","coordinates":[4.8032265,52.3591171]},"properties":{"name":"Osdorpplein West","description":"","_styleId":"tram"}},{"type":"Feature","geometry":{"type":"Point","coordinates":[4.8036706,52.3449284]},"properties":{"name":"Oudenaardeplantsoen","description":"","_styleId":"tram"}},{"type":"Feature","geometry":{"type":"Point","coordinates":[4.8750893,52.3630125]},"properties":{"name":"Overtoom/ 1e C. Huygensstraat","description":"","_styleId":"tram"}},{"type":"Feature","geometry":{"type":"Point","coordinates":[4.8906536,52.3723569]},"properties":{"name":"Paleisstraat","description":"","_styleId":"tram"}},{"type":"Feature","geometry":{"type":"Point","coordinates":[4.8687042,52.3369653]},"properties":{"name":"Parnassusweg","description":"","_styleId":"tram"}},{"type":"Feature","geometry":{"type":"Point","coordinates":[4.7770976,52.352828]},"properties":{"name":"Pilatus","description":"","_styleId":"tram"}},{"type":"Feature","geometry":{"type":"Point","coordinates":[4.9155317,52.3651045]},"properties":{"name":"Plantage Lepellaan","description":"","_styleId":"tram"}},{"type":"Feature","geometry":{"type":"Point","coordinates":[4.9094614,52.3675402]},"properties":{"name":"Plantage Parklaan","description":"","_styleId":"tram"}},{"type":"Feature","geometry":{"type":"Point","coordinates":[4.8211591,52.3808373]},"properties":{"name":"Plein '40-'45","description":"","_styleId":"tram"}},{"type":"Feature","geometry":{"type":"Point","coordinates":[4.927204,52.3659161]},"properties":{"name":"Pontanusstraat","description":"","_styleId":"tram"}},{"type":"Feature","geometry":{"type":"Point","coordinates":[4.8531786,52.3647729]},"properties":{"name":"Postjesweg (2)","description":"","_styleId":"tram"}},{"type":"Feature","geometry":{"type":"Point","coordinates":[4.8843839,52.3650035]},"properties":{"name":"Prinsengracht","description":"","_styleId":"tram"}},{"type":"Feature","geometry":{"type":"Point","coordinates":[4.8767774,52.3426151]},"properties":{"name":"Prinses Irenestraat","description":"","_styleId":"tram"}},{"type":"Feature","geometry":{"type":"Point","coordinates":[4.8964238,52.3662601]},"properties":{"name":"Rembrandtplein","description":"","_styleId":"tram"}},{"type":"Feature","geometry":{"type":"Point","coordinates":[4.8520759,52.3465483]},"properties":{"name":"Remise Karperweg","description":"","_styleId":"tram"}},{"type":"Feature","geometry":{"type":"Point","coordinates":[4.8603541,52.3590503]},"properties":{"name":"Rhijnvis Feithstraat","description":"","_styleId":"tram"}},{"type":"Feature","geometry":{"type":"Point","coordinates":[4.9348277,52.3730125]},"properties":{"name":"Rietlandpark","description":"","_styleId":"tram"}},{"type":"Feature","geometry":{"type":"Point","coordinates":[4.887104,52.3609734]},"properties":{"name":"Rijksmuseum","description":"","_styleId":"tram"}},{"type":"Feature","geometry":{"type":"Point","coordinates":[4.8820871,52.3531224]},"properties":{"name":"Roelof Hartplein","description":"","_styleId":"tram"}},{"type":"Feature","geometry":{"type":"Point","coordinates":[4.9109957,52.3625747]},"properties":{"name":"Roetersstraat","description":"","_styleId":"tram"}},{"type":"Feature","geometry":{"type":"Point","coordinates":[4.8921252,52.3694572]},"properties":{"name":"Rokin","description":"","_styleId":"tram"}},{"type":"Feature","geometry":{"type":"Point","coordinates":[4.8759027,52.3726515]},"properties":{"name":"Rozengracht","description":"","_styleId":"tram"}},{"type":"Feature","geometry":{"type":"Point","coordinates":[4.8915256,52.3472646]},"properties":{"name":"Scheldestraat","description":"","_styleId":"tram"}},{"type":"Feature","geometry":{"type":"Point","coordinates":[4.8176034,52.3758565]},"properties":{"name":"Slotermeerlaan","description":"","_styleId":"tram"}},{"type":"Feature","geometry":{"type":"Point","coordinates":[4.8186098,52.3728657]},"properties":{"name":"Sloterpark","description":"","_styleId":"tram"}},{"type":"Feature","geometry":{"type":"Point","coordinates":[4.9697229,52.3364299]},"properties":{"name":"Sniep","description":"","_styleId":"tram"}},{"type":"Feature","geometry":{"type":"Point","coordinates":[4.9441018,52.3622746]},"properties":{"name":"Soembawastraat","description":"","_styleId":"tram"}},{"type":"Feature","geometry":{"type":"Point","coordinates":[4.8768645,52.346674]},"properties":{"name":"Stadionweg","description":"","_styleId":"tram"}},{"type":"Feature","geometry":{"type":"Point","coordinates":[4.834559,52.3578798]},"properties":{"name":"Station Lelylaan","description":"","_styleId":"tram"}},{"type":"Feature","geometry":{"type":"Point","coordinates":[4.8905473,52.3369049]},"properties":{"name":"Station RAI (2)","description":"","_styleId":"tram"}},{"type":"Feature","geometry":{"type":"Point","coordinates":[4.8392172,52.3879696]},"properties":{"name":"Station Sloterdijk (2)","description":"","_styleId":"tram"}},{"type":"Feature","geometry":{"type":"Point","coordinates":[4.8739688,52.3408227]},"properties":{"name":"Station Zuid","description":"","_styleId":"tram"}},{"type":"Feature","geometry":{"type":"Point","coordinates":[4.9810143,52.3627073]},"properties":{"name":"Steigereiland","description":"","_styleId":"tram"}},{"type":"Feature","geometry":{"type":"Point","coordinates":[4.8521827,52.3580481]},"properties":{"name":"Surinameplein","description":"","_styleId":"tram"}},{"type":"Feature","geometry":{"type":"Point","coordinates":[4.8949263,52.3533345]},"properties":{"name":"Tweede Van der Helststraat","description":"","_styleId":"tram"}},{"type":"Feature","geometry":{"type":"Point","coordinates":[4.8690693,52.3219431]},"properties":{"name":"Uilenstede","description":"","_styleId":"tram"}},{"type":"Feature","geometry":{"type":"Point","coordinates":[4.8600614,52.3351977]},"properties":{"name":"VUmc Hoofdingang","description":"","_styleId":"tram"}},{"type":"Feature","geometry":{"type":"Point","coordinates":[4.8633455,52.3531821]},"properties":{"name":"Valeriusplein","description":"","_styleId":"tram"}},{"type":"Feature","geometry":{"type":"Point","coordinates":[4.878318,52.3584538]},"properties":{"name":"Van Baerlestraat","description":"","_styleId":"tram"}},{"type":"Feature","geometry":{"type":"Point","coordinates":[4.8689671,52.3248927]},"properties":{"name":"Van Boshuizenstraat","description":"","_styleId":"tram"}},{"type":"Feature","geometry":{"type":"Point","coordinates":[4.8698541,52.3842644]},"properties":{"name":"Van Hallstraat","description":"","_styleId":"tram"}},{"type":"Feature","geometry":{"type":"Point","coordinates":[4.8749198,52.3844185]},"properties":{"name":"Van Limburg Stirumplein","description":"","_styleId":"tram"}},{"type":"Feature","geometry":{"type":"Point","coordinates":[4.8565436,52.3279919]},"properties":{"name":"Van Nijenrodeweg","description":"","_styleId":"tram"}},{"type":"Feature","geometry":{"type":"Point","coordinates":[4.9008616,52.3546903]},"properties":{"name":"Van Woustraat","description":"","_styleId":"tram"}},{"type":"Feature","geometry":{"type":"Point","coordinates":[4.9905047,52.3576998]},"properties":{"name":"Vennepluimstraat","description":"","_styleId":"tram"}},{"type":"Feature","geometry":{"type":"Point","coordinates":[4.9056743,52.3463657]},"properties":{"name":"Victorieplein","description":"","_styleId":"tram"}},{"type":"Feature","geometry":{"type":"Point","coordinates":[4.8921024,52.3595051]},"properties":{"name":"Vijzelgracht (2)","description":"","_styleId":"tram"}},{"type":"Feature","geometry":{"type":"Point","coordinates":[4.852596,52.3669952]},"properties":{"name":"W. Schoutenstraat","description":"","_styleId":"tram"}},{"type":"Feature","geometry":{"type":"Point","coordinates":[4.9011051,52.3446536]},"properties":{"name":"Waalstraat","description":"","_styleId":"tram"}},{"type":"Feature","geometry":{"type":"Point","coordinates":[4.9019846,52.3669934]},"properties":{"name":"Waterlooplein (2)","description":"","_styleId":"tram"}},{"type":"Feature","geometry":{"type":"Point","coordinates":[4.9071213,52.3610021]},"properties":{"name":"Weesperplein (2)","description":"","_styleId":"tram"}},{"type":"Feature","geometry":{"type":"Point","coordinates":[4.8837739,52.3740565]},"properties":{"name":"Westermarkt","description":"","_styleId":"tram"}},{"type":"Feature","geometry":{"type":"Point","coordinates":[4.8456281,52.3515685]},"properties":{"name":"Westlandgracht","description":"","_styleId":"tram"}},{"type":"Feature","geometry":{"type":"Point","coordinates":[4.9093615,52.3572865]},"properties":{"name":"Wibautstraat (2)","description":"","_styleId":"tram"}},{"type":"Feature","geometry":{"type":"Point","coordinates":[4.92547,52.3597959]},"properties":{"name":"Wijttenbachstraat","description":"","_styleId":"tram"}},{"type":"Feature","geometry":{"type":"Point","coordinates":[4.8636349,52.3706925]},"properties":{"name":"Willem de Zwijgerlaan","description":"","_styleId":"tram"}},{"type":"Feature","geometry":{"type":"Point","coordinates":[4.8508513,52.3828002]},"properties":{"name":"Wiltzanghlaan","description":"","_styleId":"tram"}},{"type":"Feature","geometry":{"type":"Point","coordinates":[4.8591799,52.3648019]},"properties":{"name":"Witte de Withstraat","description":"","_styleId":"tram"}},{"type":"Feature","geometry":{"type":"Point","coordinates":[4.9324956,52.3659142]},"properties":{"name":"Zeeburgerdijk","description":"","_styleId":"tram"}},{"type":"Feature","geometry":{"type":"Point","coordinates":[4.856734,52.3512422]},"properties":{"name":"Zeilstraat","description":"","_styleId":"tram"}},{"type":"Feature","geometry":{"type":"Point","coordinates":[4.8851416,52.388084]},"properties":{"name":"Zoutkeetsgracht","description":"","_styleId":"tram"}},{"type":"Feature","geometry":{"type":"Point","coordinates":[4.9616961,52.3720001]},"properties":{"name":"Zuiderzeeweg","description":"","_styleId":"tram"}},{"type":"Feature","geometry":{"type":"Point","coordinates":[4.8914418,52.3493102]},"properties":{"name":"v. Hilligaertstraat","description":"","_styleId":"tram"}}],"_styles":{"metro":{"iconUrl":"https://maps.google.com/mapfiles/kml/shapes/subway.png","iconScale":1.0},"tram":{"iconUrl":"https://maps.google.com/mapfiles/kml/shapes/tram.png","iconScale":0.7}}}