{"type":"FeatureCollection","features":[{"type":"Feature","geometry":{"type":"Point","coordinates":[4.9560598,52.3302613]},"properties":{"name":"Diemen Zuid","description":"station","_styleId":"rail"}},{"type":"Feature","geometry":{"type":"Point","coordinates":[4.8521827,52.3580481]},"properties":{"name":"Surinameplein","description":"tram_stop","_styleId":"tram"}},{"type":"Feature","geometry":{"type":"Point","coordinates":[4.9193627,52.3635043]},"properties":{"name":"Alexanderplein","description":"tram_stop","_styleId":"tram"}},{"type":"Feature","geometry":{"type":"Point","coordinates":[4.9053602,52.3679611]},"properties":{"name":"Meester Visserplein","description":"tram_stop","_styleId":"tram"}},{"type":"Feature","geometry":{"type":"Point","coordinates":[4.8792047,52.3813125]},"properties":{"name":"Nassaukade","description":"tram_stop","_styleId":"tram"}},{"type":"Feature","geometry":{"type":"Point","coordinates":[4.9085707,52.3816386]},"properties":{"name":"IJplein","description":"ferry_terminal","_styleId":"ferry"}},{"type":"Feature","geometry":{"type":"Point","coordinates":[4.8851416,52.388084]},"properties":{"name":"Zoutkeetsgracht","description":"tram_stop","_styleId":"tram"}},{"type":"Feature","geometry":{"type":"Point","coordinates":[4.8749198,52.3844185]},"properties":{"name":"Van Limburg Stirumplein","description":"tram_stop","_styleId":"tram"}},{"type":"Feature","geometry":{"type":"Point","coordinates":[4.8936441,52.3735332]},"properties":{"name":"Dam","description":"tram_stop","_styleId":"tram"}},{"type":"Feature","geometry":{"type":"Point","coordinates":[4.9289422,52.3609314]},"properties":{"name":"Dapperstraat","description":"tram_stop","_styleId":"tram"}},{"type":"Feature","geometry":{"type":"Point","coordinates":[4.8820871,52.3531224]},"properties":{"name":"Roelof Hartplein","description":"tram_stop","_styleId":"tram"}},{"type":"Feature","geometry":{"type":"Point","coordinates":[4.8796377,52.3566951]},"properties":{"name":"Concertgebouw","description":"tram_stop","_styleId":"tram"}},{"type":"Feature","geometry":{"type":"Point","coordinates":[4.875268,52.3784783]},"properties":{"name":"Frederik Hendrikplantsoen","description":"tram_stop","_styleId":"tram"}},{"type":"Feature","geometry":{"type":"Point","coordinates":[4.8729548,52.3750097]},"properties":{"name":"Hugo de Grootplein","description":"tram_stop","_styleId":"tram"}},{"type":"Feature","geometry":{"type":"Point","coordinates":[4.872531,52.3742987]},"properties":{"name":"Hugo de Grootplein","description":"tram_stop","_styleId":"tram"}},{"type":"Feature","geometry":{"type":"Point","coordinates":[4.9120486,52.3545947]},"properties":{"name":"Wibautstraat","description":"stop","_styleId":"rail"}},{"type":"Feature","geometry":{"type":"Point","coordinates":[4.9324956,52.3659142]},"properties":{"name":"Zeeburgerdijk","description":"tram_stop","_styleId":"tram"}},{"type":"Feature","geometry":{"type":"Point","coordinates":[4.927204,52.3659161]},"properties":{"name":"Pontanusstraat","description":"tram_stop","_styleId":"tram"}},{"type":"Feature","geometry":{"type":"Point","coordinates":[4.9019846,52.3669934]},"properties":{"name":"Waterlooplein","description":"tram_stop","_styleId":"tram"}},{"type":"Feature","geometry":{"type":"Point","coordinates":[4.9206416,52.3630235]},"properties":{"name":"Mauritskade","description":"tram_stop","_styleId":"tram"}},{"type":"Feature","geometry":{"type":"Point","coordinates":[4.887104,52.3609734]},"properties":{"name":"Rijksmuseum","description":"tram_stop","_styleId":"tram"}},{"type":"Feature","geometry":{"type":"Point","coordinates":[4.8575769,52.3384028]},"properties":{"name":"Amstelveenseweg","description":"station","_styleId":"rail"}},{"type":"Feature","geometry":{"type":"Point","coordinates":[4.8352937,52.3726582]},"properties":{"name":"Jan van Galenstraat","description":"station","_styleId":"rail"}},{"type":"Feature","geometry":{"type":"Point","coordinates":[4.9413977,52.3186119]},"properties":{"name":"Strandvliet","description":"stop","_styleId":"rail"}},{"type":"Feature","geometry":{"type":"Point","coordinates":[4.9601712,52.2979886]},"properties":{"name":"Amsterdam Holendrecht","description":"station","_styleId":"rail"}},{"type":"Feature","geometry":{"type":"Point","coordinates":[4.9891612,52.2964067]},"properties":{"name":"Gein","description":"stop","_styleId":"rail"}},{"type":"Feature","geometry":{"type":"Point","coordinates":[4.9521292,52.306869]},"properties":{"name":"Bullewijk","description":"stop","_styleId":"rail"}},{"type":"Feature","geometry":{"type":"Point","coordinates":[4.9348277,52.3730125]},"properties":{"name":"Rietlandpark","description":"tram_stop","_styleId":"tram"}},{"type":"Feature","geometry":{"type":"Point","coordinates":[4.8501741,52.3515256]},"properties":{"name":"Hoofddorpplein","description":"tram_stop","_styleId":"tram"}},{"type":"Feature","geometry":{"type":"Point","coordinates":[4.8495922,52.3511681]},"properties":{"name":"Hoofddorpplein","description":"tram_stop","_styleId":"tram"}},{"type":"Feature","geometry":{"type":"Point","coordinates":[4.9520639,52.3652037]},"properties":{"name":"Flevopark","description":"tram_stop","_styleId":"tram"}},{"type":"Feature","geometry":{"type":"Point","coordinates":[4.8342872,52.3514907]},"properties":{"name":"Heemstedestraat","description":"tram_stop","_styleId":"tram"}},{"type":"Feature","geometry":{"type":"Point","coordinates":[4.8242594,52.3466865]},"properties":{"name":"Louwesweg","description":"tram_stop","_styleId":"tram"}},{"type":"Feature","geometry":{"type":"Point","coordinates":[4.8767774,52.3426151]},"properties":{"name":"Prinses Irenestraat","description":"tram_stop","_styleId":"tram"}},{"type":"Feature","geometry":{"type":"Point","coordinates":[4.8921974,52.3402318]},"properties":{"name":"Europaplein","description":"tram_stop","_styleId":"tram"}},{"type":"Feature","geometry":{"type":"Point","coordinates":[4.8575492,52.3492152]},"properties":{"name":"Haarlemmermeerstation","description":"tram_stop","_styleId":"tram"}},{"type":"Feature","geometry":{"type":"Point","coordinates":[4.8795995,52.3560193]},"properties":{"name":"Concertgebouw","description":"tram_stop","_styleId":"tram"}},{"type":"Feature","geometry":{"type":"Point","coordinates":[4.8156883,52.3464422]},"properties":{"name":"Laan van Vlaanderen","description":"tram_stop","_styleId":"tram"}},{"type":"Feature","geometry":{"type":"Point","coordinates":[4.8110474,52.3463857]},"properties":{"name":"Centrum Nieuw Sloten","description":"tram_stop","_styleId":"tram"}},{"type":"Feature","geometry":{"type":"Point","coordinates":[4.8036706,52.3449284]},"properties":{"name":"Oudenaardeplantsoen","description":"tram_stop","_styleId":"tram"}},{"type":"Feature","geometry":{"type":"Point","coordinates":[4.8041222,52.3450454]},"properties":{"name":"Oudenaardeplantsoen","description":"tram_stop","_styleId":"tram"}},{"type":"Feature","geometry":{"type":"Point","coordinates":[4.9305189,52.3294483]},"properties":{"name":"Van der Madeweg","description":"station","_styleId":"rail"}},{"type":"Feature","geometry":{"type":"Point","coordinates":[4.9134308,52.3772063]},"properties":{"name":"Muziekgebouw","description":"tram_stop","_styleId":"tram"}},{"type":"Feature","geometry":{"type":"Point","coordinates":[4.8401257,52.3579358]},"properties":{"name":"Derkinderenstraat","description":"tram_stop","_styleId":"tram"}},{"type":"Feature","geometry":{"type":"Point","coordinates":[4.834559,52.3578798]},"properties":{"name":"Station Lelylaan","description":"tram_stop","_styleId":"tram"}},{"type":"Feature","geometry":{"type":"Point","coordinates":[4.8531786,52.3647729]},"properties":{"name":"Postjesweg","description":"tram_stop","_styleId":"tram"}},{"type":"Feature","geometry":{"type":"Point","coordinates":[4.8107529,52.3565093]},"properties":{"name":"Meer en Vaart","description":"tram_stop","_styleId":"tram"}},{"type":"Feature","geometry":{"type":"Point","coordinates":[4.8509943,52.3580728]},"properties":{"name":"Surinameplein","description":"tram_stop","_styleId":"tram"}},{"type":"Feature","geometry":{"type":"Point","coordinates":[4.8456281,52.3515685]},"properties":{"name":"Westlandgracht","description":"tram_stop","_styleId":"tram"}},{"type":"Feature","geometry":{"type":"Point","coordinates":[4.870782,52.3560251]},"properties":{"name":"Cornelis Schuytstraat","description":"tram_stop","_styleId":"tram"}},{"type":"Feature","geometry":{"type":"Point","coordinates":[4.8812446,52.358854]},"properties":{"name":"Museumplein","description":"tram_stop","_styleId":"tram"}},{"type":"Feature","geometry":{"type":"Point","coordinates":[4.8687042,52.3369653]},"properties":{"name":"Parnassusweg","description":"tram_stop","_styleId":"tram"}},{"type":"Feature","geometry":{"type":"Point","coordinates":[4.8446631,52.3694262]},"properties":{"name":"Admiraal Helfrichstraat","description":"tram_stop","_styleId":"tram"}},{"type":"Feature","geometry":{"type":"Point","coordinates":[4.8029137,52.377278]},"properties":{"name":"Lambertus Zijlplein","description":"tram_stop","_styleId":"tram"}},{"type":"Feature","geometry":{"type":"Point","coordinates":[4.9474911,52.3432024]},"properties":{"name":"Brinkstraat","description":"tram_stop","_styleId":"tram"}},{"type":"Feature","geometry":{"type":"Point","coordinates":[4.8032265,52.3591171]},"properties":{"name":"Osdorpplein West","description":"tram_stop","_styleId":"tram"}},{"type":"Feature","geometry":{"type":"Point","coordinates":[4.8565436,52.3279919]},"properties":{"name":"Van Nijenrodeweg","description":"tram_stop","_styleId":"tram"}},{"type":"Feature","geometry":{"type":"Point","coordinates":[4.8544501,52.3352796]},"properties":{"name":"Jollenpad","description":"tram_stop","_styleId":"tram"}},{"type":"Feature","geometry":{"type":"Point","coordinates":[4.8524016,52.3411779]},"properties":{"name":"IJsbaanpad","description":"tram_stop","_styleId":"tram"}},{"type":"Feature","geometry":{"type":"Point","coordinates":[4.8708148,52.3710541]},"properties":{"name":"Bilderdijkstraat","description":"tram_stop","_styleId":"tram"}},{"type":"Feature","geometry":{"type":"Point","coordinates":[4.9373469,52.3768181]},"properties":{"name":"Azartplein","description":"tram_stop","_styleId":"tram"}},{"type":"Feature","geometry":{"type":"Point","coordinates":[4.9373223,52.3766133]},"properties":{"name":"Azartplein","description":"tram_stop","_styleId":"tram"}},{"type":"Feature","geometry":{"type":"Point","coordinates":[4.8730291,52.3467738]},"properties":{"name":"Minervaplein","description":"tram_stop","_styleId":"tram"}},{"type":"Feature","geometry":{"type":"Point","coordinates":[4.8762769,52.3468693]},"properties":{"name":"Beethovenstraat","description":"tram_stop","_styleId":"tram"}},{"type":"Feature","geometry":{"type":"Point","coordinates":[4.8771911,52.3488198]},"properties":{"name":"Gerrit van der Veenstraat","description":"tram_stop","_styleId":"tram"}},{"type":"Feature","geometry":{"type":"Point","coordinates":[4.877365,52.3492157]},"properties":{"name":"Gerrit van der Veenstraat","description":"tram_stop","_styleId":"tram"}},{"type":"Feature","geometry":{"type":"Point","coordinates":[4.8739688,52.3408227]},"properties":{"name":"Station Zuid","description":"tram_stop","_styleId":"tram"}},{"type":"Feature","geometry":{"type":"Point","coordinates":[4.9263002,52.3681426]},"properties":{"name":"Eerste Coehoornstraat","description":"tram_stop","_styleId":"tram"}},{"type":"Feature","geometry":{"type":"Point","coordinates":[4.8689671,52.3248927]},"properties":{"name":"Van Boshuizenstraat","description":"tram_stop","_styleId":"tram"}},{"type":"Feature","geometry":{"type":"Point","coordinates":[4.8690693,52.3219431]},"properties":{"name":"Uilenstede","description":"tram_stop","_styleId":"tram"}},{"type":"Feature","geometry":{"type":"Point","coordinates":[4.9334664,52.3732299]},"properties":{"name":"Rietlandpark","description":"tram_stop","_styleId":"tram"}},{"type":"Feature","geometry":{"type":"Point","coordinates":[4.8658574,52.3463018]},"properties":{"name":"Olympiaplein","description":"tram_stop","_styleId":"tram"}},{"type":"Feature","geometry":{"type":"Point","coordinates":[4.8983188,52.3638329]},"properties":{"name":"Keizersgracht","description":"tram_stop","_styleId":"tram"}},{"type":"Feature","geometry":{"type":"Point","coordinates":[4.8990837,52.3599361]},"properties":{"name":"Frederiksplein","description":"tram_stop","_styleId":"tram"}},{"type":"Feature","geometry":{"type":"Point","coordinates":[4.8994017,52.3575783]},"properties":{"name":"Albert Cuypstraat","description":"tram_stop","_styleId":"tram"}},{"type":"Feature","geometry":{"type":"Point","coordinates":[4.9011051,52.3446536]},"properties":{"name":"Waalstraat","description":"tram_stop","_styleId":"tram"}},{"type":"Feature","geometry":{"type":"Point","coordinates":[4.9005615,52.3444211]},"properties":{"name":"Waalstraat","description":"tram_stop","_styleId":"tram"}},{"type":"Feature","geometry":{"type":"Point","coordinates":[4.8962714,52.3428638]},"properties":{"name":"Maasstraat","description":"tram_stop","_styleId":"tram"}},{"type":"Feature","geometry":{"type":"Point","coordinates":[4.896873,52.343118]},"properties":{"name":"Maasstraat","description":"tram_stop","_styleId":"tram"}},{"type":"Feature","geometry":{"type":"Point","coordinates":[4.8930007,52.341925]},"properties":{"name":"Dintelstraat","description":"tram_stop","_styleId":"tram"}},{"type":"Feature","geometry":{"type":"Point","coordinates":[4.8905473,52.3369049]},"properties":{"name":"Station RAI","description":"tram_stop","_styleId":"tram"}},{"type":"Feature","geometry":{"type":"Point","coordinates":[4.9008616,52.3546903]},"properties":{"name":"Van Woustraat","description":"tram_stop","_styleId":"tram"}},{"type":"Feature","geometry":{"type":"Point","coordinates":[4.9015849,52.3549446]},"properties":{"name":"Van Woustraat","description":"tram_stop","_styleId":"tram"}},{"type":"Feature","geometry":{"type":"Point","coordinates":[4.9248123,52.3668676]},"properties":{"name":"Hoogte Kadijk","description":"tram_stop","_styleId":"tram"}},{"type":"Feature","geometry":{"type":"Point","coordinates":[4.9293975,52.3700769]},"properties":{"name":"Eerste Leeghwaterstraat","description":"tram_stop","_styleId":"tram"}},{"type":"Feature","geometry":{"type":"Point","coordinates":[4.8077454,52.359326]},"properties":{"name":"Osdorpplein Oost","description":"tram_stop","_styleId":"tram"}},{"type":"Feature","geometry":{"type":"Point","coordinates":[4.8843839,52.3650035]},"properties":{"name":"Prinsengracht","description":"tram_stop","_styleId":"tram"}},{"type":"Feature","geometry":{"type":"Point","coordinates":[4.8863435,52.3659309]},"properties":{"name":"Keizersgracht","description":"tram_stop","_styleId":"tram"}},{"type":"Feature","geometry":{"type":"Point","coordinates":[5.0048281,52.3511114]},"properties":{"name":"IJburg","description":"tram_stop","_styleId":"tram"}},{"type":"Feature","geometry":{"type":"Point","coordinates":[4.8921367,52.3324272]},"properties":{"name":"Amsteltrein","description":"halt","_styleId":"rail"}},{"type":"Feature","geometry":{"type":"Point","coordinates":[4.8583402,52.3452652]},"properties":{"name":"Olympiaweg","description":"tram_stop","_styleId":"tram"}},{"type":"Feature","geometry":{"type":"Point","coordinates":[4.8211998,52.329369]},"properties":{"name":"(unnamed)","description":"ferry_terminal","_styleId":"ferry"}},{"type":"Feature","geometry":{"type":"Point","coordinates":[4.9003819,52.3778942]},"properties":{"name":"Centraal Station","description":"tram_stop","_styleId":"tram"}},{"type":"Feature","geometry":{"type":"Point","coordinates":[4.9009769,52.3778507]},"properties":{"name":"Centraal Station","description":"tram_stop","_styleId":"tram"}},{"type":"Feature","geometry":{"type":"Point","coordinates":[4.9071213,52.3610021]},"properties":{"name":"Weesperplein","description":"tram_stop","_styleId":"tram"}},{"type":"Feature","geometry":{"type":"Point","coordinates":[4.9091584,52.3614042]},"properties":{"name":"Weesperplein","description":"tram_stop","_styleId":"tram"}},{"type":"Feature","geometry":{"type":"Point","coordinates":[4.9093615,52.3572865]},"properties":{"name":"Wibautstraat","description":"tram_stop","_styleId":"tram"}},{"type":"Feature","geometry":{"type":"Point","coordinates":[4.9328494,52.3612127]},"properties":{"name":"Muiderpoortstation","description":"tram_stop","_styleId":"tram"}},{"type":"Feature","geometry":{"type":"Point","coordinates":[4.9176266,52.3317318]},"properties":{"name":"Overamstel","description":"station","_styleId":"rail"}},{"type":"Feature","geometry":{"type":"Point","coordinates":[4.9109989,52.3471106]},"properties":{"name":"Amsteldijk","description":"tram_stop","_styleId":"tram"}},{"type":"Feature","geometry":{"type":"Point","coordinates":[4.9003351,52.3468171]},"properties":{"name":"Waalstraat","description":"tram_stop","_styleId":"tram"}},{"type":"Feature","geometry":{"type":"Point","coordinates":[4.8997164,52.3465631]},"properties":{"name":"Waalstraat","description":"tram_stop","_styleId":"tram"}},{"type":"Feature","geometry":{"type":"Point","coordinates":[4.8915256,52.3472646]},"properties":{"name":"Scheldestraat","description":"tram_stop","_styleId":"tram"}},{"type":"Feature","geometry":{"type":"Point","coordinates":[4.8508513,52.3828002]},"properties":{"name":"Wiltzanghlaan","description":"tram_stop","_styleId":"tram"}},{"type":"Feature","geometry":{"type":"Point","coordinates":[4.8539004,52.3811188]},"properties":{"name":"Bos en Lommerweg","description":"tram_stop","_styleId":"tram"}},{"type":"Feature","geometry":{"type":"Point","coordinates":[4.8569721,52.3788687]},"properties":{"name":"Karel Doormanstraat","description":"tram_stop","_styleId":"tram"}},{"type":"Feature","geometry":{"type":"Point","coordinates":[4.8577243,52.3773555]},"properties":{"name":"De Rijpstraat","description":"tram_stop","_styleId":"tram"}},{"type":"Feature","geometry":{"type":"Point","coordinates":[4.8584711,52.3751323]},"properties":{"name":"Jan van Galenstraat","description":"tram_stop","_styleId":"tram"}},{"type":"Feature","geometry":{"type":"Point","coordinates":[4.8586427,52.3743002]},"properties":{"name":"Jan van Galenstraat","description":"tram_stop","_styleId":"tram"}},{"type":"Feature","geometry":{"type":"Point","coordinates":[4.8600128,52.371502]},"properties":{"name":"Admiraal De Ruijterweg","description":"tram_stop","_styleId":"tram"}},{"type":"Feature","geometry":{"type":"Point","coordinates":[4.8636349,52.3706925]},"properties":{"name":"Willem de Zwijgerlaan","description":"tram_stop","_styleId":"tram"}},{"type":"Feature","geometry":{"type":"Point","coordinates":[4.9388456,52.3735665]},"properties":{"name":"C. van Eesterenlaan","description":"tram_stop","_styleId":"tram"}},{"type":"Feature","geometry":{"type":"Point","coordinates":[4.9192366,52.3638735]},"properties":{"name":"Alexanderplein","description":"tram_stop","_styleId":"tram"}},{"type":"Feature","geometry":{"type":"Point","coordinates":[4.9135923,52.3623479]},"properties":{"name":"Korte 's-Gravesandestraat","description":"tram_stop","_styleId":"tram"}},{"type":"Feature","geometry":{"type":"Point","coordinates":[4.8921024,52.3595051]},"properties":{"name":"Vijzelgracht","description":"tram_stop","_styleId":"tram"}},{"type":"Feature","geometry":{"type":"Point","coordinates":[4.8784155,52.3773658]},"properties":{"name":"Marnixplein","description":"tram_stop","_styleId":"tram"}},{"type":"Feature","geometry":{"type":"Point","coordinates":[4.8770204,52.3832175]},"properties":{"name":"De Wittenkade","description":"tram_stop","_styleId":"tram"}},{"type":"Feature","geometry":{"type":"Point","coordinates":[4.8698541,52.3842644]},"properties":{"name":"Van Hallstraat","description":"tram_stop","_styleId":"tram"}},{"type":"Feature","geometry":{"type":"Point","coordinates":[4.9555768,52.3393768]},"properties":{"name":"Arent Krijtsstraat","description":"tram_stop","_styleId":"tram"}},{"type":"Feature","geometry":{"type":"Point","coordinates":[4.935404,52.3507313]},"properties":{"name":"Hugo de Vrieslaan","description":"tram_stop","_styleId":"tram"}},{"type":"Feature","geometry":{"type":"Point","coordinates":[4.9308725,52.353568]},"properties":{"name":"Hogeweg","description":"tram_stop","_styleId":"tram"}},{"type":"Feature","geometry":{"type":"Point","coordinates":[4.9272293,52.3570067]},"properties":{"name":"Oostpoort","description":"tram_stop","_styleId":"tram"}},{"type":"Feature","geometry":{"type":"Point","coordinates":[4.9257029,52.3601162]},"properties":{"name":"Linnaeusstraat","description":"tram_stop","_styleId":"tram"}},{"type":"Feature","geometry":{"type":"Point","coordinates":[4.92547,52.3597959]},"properties":{"name":"Wijttenbachstraat","description":"tram_stop","_styleId":"tram"}},{"type":"Feature","geometry":{"type":"Point","coordinates":[4.910955,52.3667187]},"properties":{"name":"Artis","description":"tram_stop","_styleId":"tram"}},{"type":"Feature","geometry":{"type":"Point","coordinates":[4.9476342,52.3647569]},"properties":{"name":"Insulindeweg","description":"tram_stop","_styleId":"tram"}},{"type":"Feature","geometry":{"type":"Point","coordinates":[4.9441018,52.3622746]},"properties":{"name":"Soembawastraat","description":"tram_stop","_styleId":"tram"}},{"type":"Feature","geometry":{"type":"Point","coordinates":[4.9401785,52.3617259]},"properties":{"name":"Molukkenstraat","description":"tram_stop","_styleId":"tram"}},{"type":"Feature","geometry":{"type":"Point","coordinates":[4.9167422,52.3590732]},"properties":{"name":"Beukenweg","description":"tram_stop","_styleId":"tram"}},{"type":"Feature","geometry":{"type":"Point","coordinates":[4.8912853,52.3744231]},"properties":{"name":"Dam","description":"tram_stop","_styleId":"tram"}},{"type":"Feature","geometry":{"type":"Point","coordinates":[4.8809562,52.381394]},"properties":{"name":"Nieuwe Willemsstraat","description":"tram_stop","_styleId":"tram"}},{"type":"Feature","geometry":{"type":"Point","coordinates":[4.7747567,52.3537327]},"properties":{"name":"Matterhorn","description":"tram_stop","_styleId":"tram"}},{"type":"Feature","geometry":{"type":"Point","coordinates":[4.7770976,52.352828]},"properties":{"name":"Pilatus","description":"tram_stop","_styleId":"tram"}},{"type":"Feature","geometry":{"type":"Point","coordinates":[4.7836582,52.3501979]},"properties":{"name":"Inaristraat","description":"tram_stop","_styleId":"tram"}},{"type":"Feature","geometry":{"type":"Point","coordinates":[4.7888748,52.3498075]},"properties":{"name":"Ecuplein","description":"tram_stop","_styleId":"tram"}},{"type":"Feature","geometry":{"type":"Point","coordinates":[4.7951129,52.3510417]},"properties":{"name":"Baden Powellweg","description":"tram_stop","_styleId":"tram"}},{"type":"Feature","geometry":{"type":"Point","coordinates":[4.8025242,52.3525411]},"properties":{"name":"Hoekenes","description":"tram_stop","_styleId":"tram"}},{"type":"Feature","geometry":{"type":"Point","coordinates":[4.8090899,52.3539266]},"properties":{"name":"Louis Davidsstraat","description":"tram_stop","_styleId":"tram"}},{"type":"Feature","geometry":{"type":"Point","coordinates":[4.7913,52.3564413]},"properties":{"name":"Baden Powellweg","description":"tram_stop","_styleId":"tram"}},{"type":"Feature","geometry":{"type":"Point","coordinates":[4.7990044,52.3579858]},"properties":{"name":"Hoekenes","description":"tram_stop","_styleId":"tram"}},{"type":"Feature","geometry":{"type":"Point","coordinates":[4.8532957,52.3617312]},"properties":{"name":"Corantijnstraat","description":"tram_stop","_styleId":"tram"}},{"type":"Feature","geometry":{"type":"Point","coordinates":[4.8591799,52.3648019]},"properties":{"name":"Witte de Withstraat","description":"tram_stop","_styleId":"tram"}},{"type":"Feature","geometry":{"type":"Point","coordinates":[4.8653608,52.3654149]},"properties":{"name":"Nicolaas Beetsstraat","description":"tram_stop","_styleId":"tram"}},{"type":"Feature","geometry":{"type":"Point","coordinates":[4.8656566,52.365525]},"properties":{"name":"Nicolaas Beetsstraat","description":"tram_stop","_styleId":"tram"}},{"type":"Feature","geometry":{"type":"Point","coordinates":[4.8717586,52.3671317]},"properties":{"name":"Bilderdijkstraat","description":"tram_stop","_styleId":"tram"}},{"type":"Feature","geometry":{"type":"Point","coordinates":[4.8603541,52.3590503]},"properties":{"name":"Rhijnvis Feithstraat","description":"tram_stop","_styleId":"tram"}},{"type":"Feature","geometry":{"type":"Point","coordinates":[4.8596776,52.3588447]},"properties":{"name":"Rhijnvis Feithstraat","description":"tram_stop","_styleId":"tram"}},{"type":"Feature","geometry":{"type":"Point","coordinates":[4.8033914,52.3772617]},"properties":{"name":"Lambertus Zijlplein","description":"tram_stop","_styleId":"tram"}},{"type":"Feature","geometry":{"type":"Point","coordinates":[4.8071867,52.3768507]},"properties":{"name":"Doctor H. Colijnstraat","description":"tram_stop","_styleId":"tram"}},{"type":"Feature","geometry":{"type":"Point","coordinates":[4.8119642,52.3763846]},"properties":{"name":"Burgemeester Van Leeuwenlaan","description":"tram_stop","_styleId":"tram"}},{"type":"Feature","geometry":{"type":"Point","coordinates":[4.8176034,52.3758565]},"properties":{"name":"Slotermeerlaan","description":"tram_stop","_styleId":"tram"}},{"type":"Feature","geometry":{"type":"Point","coordinates":[4.8277027,52.3743645]},"properties":{"name":"Burgemeester Rendorpstraat","description":"tram_stop","_styleId":"tram"}},{"type":"Feature","geometry":{"type":"Point","coordinates":[4.8268013,52.3744723]},"properties":{"name":"Burgemeester Rendorpstraat","description":"tram_stop","_styleId":"tram"}},{"type":"Feature","geometry":{"type":"Point","coordinates":[4.8359077,52.3730297]},"properties":{"name":"Jan van Galenstraat","description":"tram_stop","_styleId":"tram"}},{"type":"Feature","geometry":{"type":"Point","coordinates":[4.8381341,52.3716278]},"properties":{"name":"Jan Tooropstraat","description":"tram_stop","_styleId":"tram"}},{"type":"Feature","geometry":{"type":"Point","coordinates":[4.8384594,52.3695968]},"properties":{"name":"Jan Voermanstraat","description":"tram_stop","_styleId":"tram"}},{"type":"Feature","geometry":{"type":"Point","coordinates":[4.8507957,52.3701459]},"properties":{"name":"Mercatorplein","description":"tram_stop","_styleId":"tram"}},{"type":"Feature","geometry":{"type":"Point","coordinates":[4.8554942,52.3709604]},"properties":{"name":"Marco Polostraat","description":"tram_stop","_styleId":"tram"}},{"type":"Feature","geometry":{"type":"Point","coordinates":[4.8185432,52.3745804]},"properties":{"name":"Burgemeester Ro\u00ebllstraat","description":"tram_stop","_styleId":"tram"}},{"type":"Feature","geometry":{"type":"Point","coordinates":[4.8485891,52.3733319]},"properties":{"name":"Jan van Galenstraat","description":"tram_stop","_styleId":"tram"}},{"type":"Feature","geometry":{"type":"Point","coordinates":[4.891245,52.3727319]},"properties":{"name":"Dam","description":"tram_stop","_styleId":"tram"}},{"type":"Feature","geometry":{"type":"Point","coordinates":[4.8913489,52.3735587]},"properties":{"name":"Dam","description":"tram_stop","_styleId":"tram"}},{"type":"Feature","geometry":{"type":"Point","coordinates":[4.9097221,52.3573493]},"properties":{"name":"Wibautstraat","description":"tram_stop","_styleId":"tram"}},{"type":"Feature","geometry":{"type":"Point","coordinates":[4.8949263,52.3533345]},"properties":{"name":"Tweede Van der Helststraat","description":"tram_stop","_styleId":"tram"}},{"type":"Feature","geometry":{"type":"Point","coordinates":[4.8572486,52.338422]},"properties":{"name":"Amstelveenseweg","description":"tram_stop","_styleId":"tram"}},{"type":"Feature","geometry":{"type":"Point","coordinates":[4.857301,52.3382323]},"properties":{"name":"Amstelveenseweg","description":"tram_stop","_styleId":"tram"}},{"type":"Feature","geometry":{"type":"Point","coordinates":[4.8577457,52.3416051]},"properties":{"name":"IJsbaanpad","description":"tram_stop","_styleId":"tram"}},{"type":"Feature","geometry":{"type":"Point","coordinates":[4.8575721,52.3405984]},"properties":{"name":"IJsbaanpad","description":"tram_stop","_styleId":"tram"}},{"type":"Feature","geometry":{"type":"Point","coordinates":[4.8568368,52.3440249]},"properties":{"name":"Olympisch Stadion","description":"tram_stop","_styleId":"tram"}},{"type":"Feature","geometry":{"type":"Point","coordinates":[4.8695155,52.3529363]},"properties":{"name":"Emmastraat","description":"tram_stop","_styleId":"tram"}},{"type":"Feature","geometry":{"type":"Point","coordinates":[4.8775361,52.3695206]},"properties":{"name":"Elandsgracht","description":"tram_stop","_styleId":"tram"}},{"type":"Feature","geometry":{"type":"Point","coordinates":[4.9398853,52.3479273]},"properties":{"name":"Kruislaan","description":"tram_stop","_styleId":"tram"}},{"type":"Feature","geometry":{"type":"Point","coordinates":[4.8464234,52.3771934]},"properties":{"name":"Bos en Lommerplein","description":"tram_stop","_styleId":"tram"}},{"type":"Feature","geometry":{"type":"Point","coordinates":[4.8275024,52.3491038]},"properties":{"name":"Johan Huizingalaan","description":"tram_stop","_styleId":"tram"}},{"type":"Feature","geometry":{"type":"Point","coordinates":[4.8449335,52.3777823]},"properties":{"name":"Bos en Lommerplein","description":"tram_stop","_styleId":"tram"}},{"type":"Feature","geometry":{"type":"Point","coordinates":[4.8274406,52.349218]},"properties":{"name":"Johan Huizingalaan","description":"tram_stop","_styleId":"tram"}},{"type":"Feature","geometry":{"type":"Point","coordinates":[4.8312794,52.3798913]},"properties":{"name":"Burgemeester Fockstraat","description":"tram_stop","_styleId":"tram"}},{"type":"Feature","geometry":{"type":"Point","coordinates":[4.8382938,52.3787581]},"properties":{"name":"Burgemeester de Vlugtlaan","description":"tram_stop","_styleId":"tram"}},{"type":"Feature","geometry":{"type":"Point","coordinates":[4.8211591,52.3808373]},"properties":{"name":"Plein '40-'45","description":"tram_stop","_styleId":"tram"}},{"type":"Feature","geometry":{"type":"Point","coordinates":[4.8372054,52.378963]},"properties":{"name":"Burgemeester de Vlugtlaan","description":"tram_stop","_styleId":"tram"}},{"type":"Feature","geometry":{"type":"Point","coordinates":[4.8759027,52.3726515]},"properties":{"name":"Rozengracht","description":"tram_stop","_styleId":"tram"}},{"type":"Feature","geometry":{"type":"Point","coordinates":[4.8763385,52.3723364]},"properties":{"name":"Marnixstraat","description":"tram_stop","_styleId":"tram"}},{"type":"Feature","geometry":{"type":"Point","coordinates":[4.8225241,52.3812253]},"properties":{"name":"Plein '40-'45","description":"tram_stop","_styleId":"tram"}},{"type":"Feature","geometry":{"type":"Point","coordinates":[4.8784633,52.3681423]},"properties":{"name":"Elandsgracht","description":"tram_stop","_styleId":"tram"}},{"type":"Feature","geometry":{"type":"Point","coordinates":[4.8258104,52.38075]},"properties":{"name":"Burgemeester Eliasstraat","description":"tram_stop","_styleId":"tram"}},{"type":"Feature","geometry":{"type":"Point","coordinates":[4.8768971,52.368541]},"properties":{"name":"Elandsgracht","description":"tram_stop","_styleId":"tram"}},{"type":"Feature","geometry":{"type":"Point","coordinates":[4.8275036,52.3804505]},"properties":{"name":"Burgemeester Eliasstraat","description":"tram_stop","_styleId":"tram"}},{"type":"Feature","geometry":{"type":"Point","coordinates":[4.8332396,52.3795507]},"properties":{"name":"Burgemeester Fockstraat","description":"tram_stop","_styleId":"tram"}},{"type":"Feature","geometry":{"type":"Point","coordinates":[4.8600614,52.3351977]},"properties":{"name":"VUmc Hoofdingang","description":"tram_stop","_styleId":"tram"}},{"type":"Feature","geometry":{"type":"Point","coordinates":[4.8611177,52.3351485]},"properties":{"name":"VUmc Hoofdingang","description":"tram_stop","_styleId":"tram"}},{"type":"Feature","geometry":{"type":"Point","coordinates":[4.8837739,52.3740565]},"properties":{"name":"Westermarkt","description":"tram_stop","_styleId":"tram"}},{"type":"Feature","geometry":{"type":"Point","coordinates":[4.8791804,52.3559245]},"properties":{"name":"Concertgebouw","description":"tram_stop","_styleId":"tram"}},{"type":"Feature","geometry":{"type":"Point","coordinates":[4.8798146,52.3563875]},"properties":{"name":"Concertgebouw","description":"tram_stop","_styleId":"tram"}},{"type":"Feature","geometry":{"type":"Point","coordinates":[4.8569523,52.3438468]},"properties":{"name":"Olympisch Stadion","description":"tram_stop","_styleId":"tram"}},{"type":"Feature","geometry":{"type":"Point","coordinates":[4.8843359,52.3740143]},"properties":{"name":"Westermarkt","description":"tram_stop","_styleId":"tram"}},{"type":"Feature","geometry":{"type":"Point","coordinates":[4.856734,52.3512422]},"properties":{"name":"Zeilstraat","description":"tram_stop","_styleId":"tram"}},{"type":"Feature","geometry":{"type":"Point","coordinates":[4.8569532,52.3516183]},"properties":{"name":"Amstelveenseweg","description":"tram_stop","_styleId":"tram"}},{"type":"Feature","geometry":{"type":"Point","coordinates":[4.870169,52.3531926]},"properties":{"name":"Emmastraat","description":"tram_stop","_styleId":"tram"}},{"type":"Feature","geometry":{"type":"Point","coordinates":[4.8582793,52.3519533]},"properties":{"name":"Amstelveenseweg","description":"tram_stop","_styleId":"tram"}},{"type":"Feature","geometry":{"type":"Point","coordinates":[4.8564723,52.3517583]},"properties":{"name":"Amstelveenseweg","description":"tram_stop","_styleId":"tram"}},{"type":"Feature","geometry":{"type":"Point","coordinates":[4.8946766,52.3768269]},"properties":{"name":"Nieuwezijds Kolk","description":"tram_stop","_styleId":"tram"}},{"type":"Feature","geometry":{"type":"Point","coordinates":[4.8946435,52.3768464]},"properties":{"name":"Nieuwezijds Kolk","description":"tram_stop","_styleId":"tram"}},{"type":"Feature","geometry":{"type":"Point","coordinates":[4.8183242,52.3391218]},"properties":{"name":"(unnamed)","description":"ferry_terminal","_styleId":"ferry"}},{"type":"Feature","geometry":{"type":"Point","coordinates":[4.8184448,52.3392473]},"properties":{"name":"(unnamed)","description":"ferry_terminal","_styleId":"ferry"}},{"type":"Feature","geometry":{"type":"Point","coordinates":[4.8337504,52.3515095]},"properties":{"name":"Heemstedestraat","description":"tram_stop","_styleId":"tram"}},{"type":"Feature","geometry":{"type":"Point","coordinates":[4.9220599,52.3760656]},"properties":{"name":"Kattenburgerstraat","description":"tram_stop","_styleId":"tram"}},{"type":"Feature","geometry":{"type":"Point","coordinates":[4.9616961,52.3720001]},"properties":{"name":"Zuiderzeeweg","description":"tram_stop","_styleId":"tram"}},{"type":"Feature","geometry":{"type":"Point","coordinates":[4.816387,52.3464822]},"properties":{"name":"Laan van Vlaanderen","description":"tram_stop","_styleId":"tram"}},{"type":"Feature","geometry":{"type":"Point","coordinates":[4.8958266,52.3239842]},"properties":{"name":"(unnamed)","description":"ferry_terminal","_styleId":"ferry"}},{"type":"Feature","geometry":{"type":"Point","coordinates":[4.8947915,52.3234766]},"properties":{"name":"(unnamed)","description":"ferry_terminal","_styleId":"ferry"}},{"type":"Feature","geometry":{"type":"Point","coordinates":[4.8018381,52.3524376]},"properties":{"name":"Hoekenes","description":"tram_stop","_styleId":"tram"}},{"type":"Feature","geometry":{"type":"Point","coordinates":[4.9983647,52.3258379]},"properties":{"name":"(unnamed)","description":"ferry_terminal","_styleId":"ferry"}},{"type":"Feature","geometry":{"type":"Point","coordinates":[4.8397482,52.3579573]},"properties":{"name":"Derkinderenstraat","description":"tram_stop","_styleId":"tram"}},{"type":"Feature","geometry":{"type":"Point","coordinates":[4.9056743,52.3463657]},"properties":{"name":"Victorieplein","description":"tram_stop","_styleId":"tram"}},{"type":"Feature","geometry":{"type":"Point","coordinates":[4.905072,52.3467733]},"properties":{"name":"Victorieplein","description":"tram_stop","_styleId":"tram"}},{"type":"Feature","geometry":{"type":"Point","coordinates":[4.9134821,52.358335]},"properties":{"name":"Camperstraat","description":"tram_stop","_styleId":"tram"}},{"type":"Feature","geometry":{"type":"Point","coordinates":[4.8551084,52.3708621]},"properties":{"name":"Marco Polostraat","description":"tram_stop","_styleId":"tram"}},{"type":"Feature","geometry":{"type":"Point","coordinates":[4.8147934,52.3345052]},"properties":{"name":"(unnamed)","description":"ferry_terminal","_styleId":"ferry"}},{"type":"Feature","geometry":{"type":"Point","coordinates":[4.8659833,52.3352308]},"properties":{"name":"De Boelelaan/VU","description":"tram_stop","_styleId":"tram"}},{"type":"Feature","geometry":{"type":"Point","coordinates":[4.9031727,52.3821461]},"properties":{"name":"Buiksloterweg","description":"ferry_terminal","_styleId":"ferry"}},{"type":"Feature","geometry":{"type":"Point","coordinates":[4.8705518,52.3712485]},"properties":{"name":"De Clercqstraat","description":"tram_stop","_styleId":"tram"}},{"type":"Feature","geometry":{"type":"Point","coordinates":[4.8186098,52.3728657]},"properties":{"name":"Sloterpark","description":"tram_stop","_styleId":"tram"}},{"type":"Feature","geometry":{"type":"Point","coordinates":[4.904043,52.34941]},"properties":{"name":"Amstelkade","description":"tram_stop","_styleId":"tram"}},{"type":"Feature","geometry":{"type":"Point","coordinates":[4.9405051,52.3617404]},"properties":{"name":"Molukkenstraat","description":"tram_stop","_styleId":"tram"}},{"type":"Feature","geometry":{"type":"Point","coordinates":[4.883062,52.3634456]},"properties":{"name":"Leidseplein","description":"tram_stop","_styleId":"tram"}},{"type":"Feature","geometry":{"type":"Point","coordinates":[4.8666219,52.3605256]},"properties":{"name":"Jan Pieter Heijestraat","description":"tram_stop","_styleId":"tram"}},{"type":"Feature","geometry":{"type":"Point","coordinates":[4.8416382,52.3515418]},"properties":{"name":"Delflandlaan","description":"tram_stop","_styleId":"tram"}},{"type":"Feature","geometry":{"type":"Point","coordinates":[4.83976,52.351558]},"properties":{"name":"Delflandlaan","description":"tram_stop","_styleId":"tram"}},{"type":"Feature","geometry":{"type":"Point","coordinates":[4.8807936,52.3646155]},"properties":{"name":"Leidseplein","description":"tram_stop","_styleId":"tram"}},{"type":"Feature","geometry":{"type":"Point","coordinates":[4.8194571,52.3766604]},"properties":{"name":"Burgemeester Ro\u00ebllstraat","description":"tram_stop","_styleId":"tram"}},{"type":"Feature","geometry":{"type":"Point","coordinates":[4.8688435,52.3375768]},"properties":{"name":"Parnassusweg","description":"tram_stop","_styleId":"tram"}},{"type":"Feature","geometry":{"type":"Point","coordinates":[4.9118953,52.3545601]},"properties":{"name":"Wibautstraat","description":"stop","_styleId":"rail"}},{"type":"Feature","geometry":{"type":"Point","coordinates":[4.8187129,52.3256898]},"properties":{"name":"(unnamed)","description":"ferry_terminal","_styleId":"ferry"}},{"type":"Feature","geometry":{"type":"Point","coordinates":[4.8688694,52.332589]},"properties":{"name":"A. J. Ernststraat","description":"tram_stop","_styleId":"tram"}},{"type":"Feature","geometry":{"type":"Point","coordinates":[4.9029854,52.3822974]},"properties":{"name":"Buiksloterweg","description":"ferry_terminal","_styleId":"ferry"}},{"type":"Feature","geometry":{"type":"Point","coordinates":[4.9537484,52.3844188]},"properties":{"name":"(unnamed)","description":"ferry_terminal","_styleId":"ferry"}},{"type":"Feature","geometry":{"type":"Point","coordinates":[4.9608797,52.38327]},"properties":{"name":"(unnamed)","description":"ferry_terminal","_styleId":"ferry"}},{"type":"Feature","geometry":{"type":"Point","coordinates":[4.9534825,52.3843898]},"properties":{"name":"(unnamed)","description":"ferry_terminal","_styleId":"ferry"}},{"type":"Feature","geometry":{"type":"Point","coordinates":[4.7870176,52.3555825]},"properties":{"name":"Dijkgraafplein","description":"tram_stop","_styleId":"tram"}},{"type":"Feature","geometry":{"type":"Point","coordinates":[4.7864929,52.3554481]},"properties":{"name":"Dijkgraafplein","description":"tram_stop","_styleId":"tram"}},{"type":"Feature","geometry":{"type":"Point","coordinates":[4.8633455,52.3531821]},"properties":{"name":"Valeriusplein","description":"tram_stop","_styleId":"tram"}},{"type":"Feature","geometry":{"type":"Point","coordinates":[4.8636337,52.3532989]},"properties":{"name":"Valeriusplein","description":"tram_stop","_styleId":"tram"}},{"type":"Feature","geometry":{"type":"Point","coordinates":[4.776554,52.3530108]},"properties":{"name":"Pilatus","description":"tram_stop","_styleId":"tram"}},{"type":"Feature","geometry":{"type":"Point","coordinates":[4.7829483,52.3504489]},"properties":{"name":"Inaristraat","description":"tram_stop","_styleId":"tram"}},{"type":"Feature","geometry":{"type":"Point","coordinates":[4.9336328,52.3611749]},"properties":{"name":"Muiderpoortstation","description":"tram_stop","_styleId":"tram"}},{"type":"Feature","geometry":{"type":"Point","coordinates":[4.8392172,52.3879696]},"properties":{"name":"Station Sloterdijk","description":"tram_stop","_styleId":"tram"}},{"type":"Feature","geometry":{"type":"Point","coordinates":[4.8725518,52.3673632]},"properties":{"name":"Bilderdijkstraat","description":"tram_stop","_styleId":"tram"}},{"type":"Feature","geometry":{"type":"Point","coordinates":[4.8382223,52.3796134]},"properties":{"name":"De Vlugtlaan","description":"station","_styleId":"rail"}},{"type":"Feature","geometry":{"type":"Point","coordinates":[4.8763837,52.3742782]},"properties":{"name":"Bloemgracht","description":"tram_stop","_styleId":"tram"}},{"type":"Feature","geometry":{"type":"Point","coordinates":[4.8722954,52.3670831]},"properties":{"name":"Kinkerstraat","description":"tram_stop","_styleId":"tram"}},{"type":"Feature","geometry":{"type":"Point","coordinates":[4.9003434,52.3778058]},"properties":{"name":"Centraal Station","description":"tram_stop","_styleId":"tram"}},{"type":"Feature","geometry":{"type":"Point","coordinates":[4.9003629,52.3778505]},"properties":{"name":"Centraal Station","description":"tram_stop","_styleId":"tram"}},{"type":"Feature","geometry":{"type":"Point","coordinates":[4.8552771,52.3803006]},"properties":{"name":"Bos en Lommerweg","description":"tram_stop","_styleId":"tram"}},{"type":"Feature","geometry":{"type":"Point","coordinates":[4.8522251,52.3820439]},"properties":{"name":"Wiltzanghlaan","description":"tram_stop","_styleId":"tram"}},{"type":"Feature","geometry":{"type":"Point","coordinates":[4.8953791,52.3748676]},"properties":{"name":"Dam","description":"tram_stop","_styleId":"tram"}},{"type":"Feature","geometry":{"type":"Point","coordinates":[4.8921252,52.3694572]},"properties":{"name":"Rokin","description":"tram_stop","_styleId":"tram"}},{"type":"Feature","geometry":{"type":"Point","coordinates":[4.892274,52.3697221]},"properties":{"name":"Rokin","description":"tram_stop","_styleId":"tram"}},{"type":"Feature","geometry":{"type":"Point","coordinates":[4.8964238,52.3662601]},"properties":{"name":"Rembrandtplein","description":"tram_stop","_styleId":"tram"}},{"type":"Feature","geometry":{"type":"Point","coordinates":[4.9022284,52.3671715]},"properties":{"name":"Waterlooplein","description":"tram_stop","_styleId":"tram"}},{"type":"Feature","geometry":{"type":"Point","coordinates":[4.9058474,52.3677535]},"properties":{"name":"Meester Visserplein","description":"tram_stop","_styleId":"tram"}},{"type":"Feature","geometry":{"type":"Point","coordinates":[4.9113237,52.3665623]},"properties":{"name":"Artis","description":"tram_stop","_styleId":"tram"}},{"type":"Feature","geometry":{"type":"Point","coordinates":[4.8982915,52.3637916]},"properties":{"name":"Keizersgracht","description":"tram_stop","_styleId":"tram"}},{"type":"Feature","geometry":{"type":"Point","coordinates":[4.8989049,52.3590024]},"properties":{"name":"Frederiksplein","description":"tram_stop","_styleId":"tram"}},{"type":"Feature","geometry":{"type":"Point","coordinates":[4.9010669,52.3550346]},"properties":{"name":"Ceintuurbaan","description":"tram_stop","_styleId":"tram"}},{"type":"Feature","geometry":{"type":"Point","coordinates":[4.90332,52.3514501]},"properties":{"name":"Lutmastraat","description":"tram_stop","_styleId":"tram"}},{"type":"Feature","geometry":{"type":"Point","coordinates":[4.9051006,52.3465873]},"properties":{"name":"Victorieplein","description":"tram_stop","_styleId":"tram"}},{"type":"Feature","geometry":{"type":"Point","coordinates":[4.9043407,52.3487259]},"properties":{"name":"Amstelkade","description":"tram_stop","_styleId":"tram"}},{"type":"Feature","geometry":{"type":"Point","coordinates":[4.9155317,52.3651045]},"properties":{"name":"Plantage Lepellaan","description":"tram_stop","_styleId":"tram"}},{"type":"Feature","geometry":{"type":"Point","coordinates":[4.9213369,52.3630659]},"properties":{"name":"Mauritskade","description":"tram_stop","_styleId":"tram"}},{"type":"Feature","geometry":{"type":"Point","coordinates":[4.9196097,52.3634343]},"properties":{"name":"Alexanderplein","description":"tram_stop","_styleId":"tram"}},{"type":"Feature","geometry":{"type":"Point","coordinates":[4.9152768,52.3652225]},"properties":{"name":"Plantage Lepellaan","description":"tram_stop","_styleId":"tram"}},{"type":"Feature","geometry":{"type":"Point","coordinates":[4.9238286,52.3621936]},"properties":{"name":"Eerste Van Swindenstraat","description":"tram_stop","_styleId":"tram"}},{"type":"Feature","geometry":{"type":"Point","coordinates":[4.9241559,52.361616]},"properties":{"name":"Eerste Van Swindenstraat","description":"tram_stop","_styleId":"tram"}},{"type":"Feature","geometry":{"type":"Point","coordinates":[4.9250867,52.360259]},"properties":{"name":"Wijttenbachstraat","description":"tram_stop","_styleId":"tram"}},{"type":"Feature","geometry":{"type":"Point","coordinates":[4.9269018,52.3574383]},"properties":{"name":"Oostpoort","description":"tram_stop","_styleId":"tram"}},{"type":"Feature","geometry":{"type":"Point","coordinates":[4.9546574,52.33957]},"properties":{"name":"Arent Krijtsstraat","description":"tram_stop","_styleId":"tram"}},{"type":"Feature","geometry":{"type":"Point","coordinates":[4.934801,52.351066]},"properties":{"name":"Hugo de Vrieslaan","description":"tram_stop","_styleId":"tram"}},{"type":"Feature","geometry":{"type":"Point","coordinates":[4.9404536,52.3476135]},"properties":{"name":"Kruislaan","description":"tram_stop","_styleId":"tram"}},{"type":"Feature","geometry":{"type":"Point","coordinates":[4.9478959,52.3428971]},"properties":{"name":"Brinkstraat","description":"tram_stop","_styleId":"tram"}},{"type":"Feature","geometry":{"type":"Point","coordinates":[4.912547,52.3772761]},"properties":{"name":"Muziekgebouw","description":"tram_stop","_styleId":"tram"}},{"type":"Feature","geometry":{"type":"Point","coordinates":[4.9340409,52.3729896]},"properties":{"name":"Rietlandpark","description":"tram_stop","_styleId":"tram"}},{"type":"Feature","geometry":{"type":"Point","coordinates":[4.9616739,52.3719706]},"properties":{"name":"Zuiderzeeweg","description":"tram_stop","_styleId":"tram"}},{"type":"Feature","geometry":{"type":"Point","coordinates":[4.8889914,52.3680424]},"properties":{"name":"Koningsplein","description":"tram_stop","_styleId":"tram"}},{"type":"Feature","geometry":{"type":"Point","coordinates":[4.9688689,52.3689627]},"properties":{"name":"Bob Haarmslaan","description":"tram_stop","_styleId":"tram"}},{"type":"Feature","geometry":{"type":"Point","coordinates":[4.9946247,52.3555154]},"properties":{"name":"Diemerparklaan","description":"tram_stop","_styleId":"tram"}},{"type":"Feature","geometry":{"type":"Point","coordinates":[4.9211099,52.3761672]},"properties":{"name":"Kattenburgerstraat","description":"tram_stop","_styleId":"tram"}},{"type":"Feature","geometry":{"type":"Point","coordinates":[4.9958806,52.3549103]},"properties":{"name":"Diemerparklaan","description":"tram_stop","_styleId":"tram"}},{"type":"Feature","geometry":{"type":"Point","coordinates":[5.0002302,52.3525961]},"properties":{"name":"Lumi\u00e8restraat","description":"tram_stop","_styleId":"tram"}},{"type":"Feature","geometry":{"type":"Point","coordinates":[4.9990167,52.3531807]},"properties":{"name":"Lumi\u00e8restraat","description":"tram_stop","_styleId":"tram"}},{"type":"Feature","geometry":{"type":"Point","coordinates":[4.9308851,52.3847785]},"properties":{"name":"Veer Zamenhofstraat","description":"ferry_terminal","_styleId":"ferry"}},{"type":"Feature","geometry":{"type":"Point","coordinates":[4.9607545,52.3833223]},"properties":{"name":"(unnamed)","description":"ferry_terminal","_styleId":"ferry"}},{"type":"Feature","geometry":{"type":"Point","coordinates":[4.876516,52.3744189]},"properties":{"name":"Bloemgracht","description":"tram_stop","_styleId":"tram"}},{"type":"Feature","geometry":{"type":"Point","coordinates":[4.9153293,52.3778116]},"properties":{"name":"Passenger Terminal Amsterdam","description":"ferry_terminal","_styleId":"ferry"}},{"type":"Feature","geometry":{"type":"Point","coordinates":[4.8460808,52.3858873]},"properties":{"name":"Molenwerf","description":"tram_stop","_styleId":"tram"}},{"type":"Feature","geometry":{"type":"Point","coordinates":[4.9385662,52.3640547]},"properties":{"name":"Javaplein","description":"tram_stop","_styleId":"tram"}},{"type":"Feature","geometry":{"type":"Point","coordinates":[4.9382411,52.3641725]},"properties":{"name":"Javaplein","description":"tram_stop","_styleId":"tram"}},{"type":"Feature","geometry":{"type":"Point","coordinates":[4.9381702,52.3734596]},"properties":{"name":"C. van Eesterenlaan","description":"tram_stop","_styleId":"tram"}},{"type":"Feature","geometry":{"type":"Point","coordinates":[4.9634834,52.3713049]},"properties":{"name":"(unnamed)","description":"tram_stop","_styleId":"tram"}},{"type":"Feature","geometry":{"type":"Point","coordinates":[4.9810143,52.3627073]},"properties":{"name":"Steigereiland","description":"tram_stop","_styleId":"tram"}},{"type":"Feature","geometry":{"type":"Point","coordinates":[4.9799949,52.3632052]},"properties":{"name":"Steigereiland","description":"tram_stop","_styleId":"tram"}},{"type":"Feature","geometry":{"type":"Point","coordinates":[4.8906536,52.3723569]},"properties":{"name":"Paleisstraat","description":"tram_stop","_styleId":"tram"}},{"type":"Feature","geometry":{"type":"Point","coordinates":[4.8968199,52.3662292]},"properties":{"name":"Rembrandtplein","description":"tram_stop","_styleId":"tram"}},{"type":"Feature","geometry":{"type":"Point","coordinates":[4.875944,52.3718196]},"properties":{"name":"Rozengracht","description":"tram_stop","_styleId":"tram"}},{"type":"Feature","geometry":{"type":"Point","coordinates":[4.8752838,52.3720538]},"properties":{"name":"Marnixstraat","description":"tram_stop","_styleId":"tram"}},{"type":"Feature","geometry":{"type":"Point","coordinates":[4.9429305,52.3159898]},"properties":{"name":"Amsterdam ArenA","description":"halt","_styleId":"rail"}},{"type":"Feature","geometry":{"type":"Point","coordinates":[4.9014422,52.3545776]},"properties":{"name":"Ceintuurbaan","description":"tram_stop","_styleId":"tram"}},{"type":"Feature","geometry":{"type":"Point","coordinates":[4.893324,52.341887]},"properties":{"name":"Dintelstraat","description":"tram_stop","_styleId":"tram"}},{"type":"Feature","geometry":{"type":"Point","coordinates":[4.8922816,52.3404324]},"properties":{"name":"Europaplein","description":"tram_stop","_styleId":"tram"}},{"type":"Feature","geometry":{"type":"Point","coordinates":[4.8906393,52.3369161]},"properties":{"name":"Station RAI","description":"tram_stop","_styleId":"tram"}},{"type":"Feature","geometry":{"type":"Point","coordinates":[4.889801,52.3362207]},"properties":{"name":"Drentepark","description":"tram_stop","_styleId":"tram"}},{"type":"Feature","geometry":{"type":"Point","coordinates":[4.9111583,52.3471037]},"properties":{"name":"Amsteldijk","description":"tram_stop","_styleId":"tram"}},{"type":"Feature","geometry":{"type":"Point","coordinates":[4.8641598,52.3704336]},"properties":{"name":"Willem de Zwijgerlaan","description":"tram_stop","_styleId":"tram"}},{"type":"Feature","geometry":{"type":"Point","coordinates":[4.8604577,52.3713902]},"properties":{"name":"Admiraal De Ruijterweg","description":"tram_stop","_styleId":"tram"}},{"type":"Feature","geometry":{"type":"Point","coordinates":[4.8719933,52.3674579]},"properties":{"name":"Kinkerstraat","description":"tram_stop","_styleId":"tram"}},{"type":"Feature","geometry":{"type":"Point","coordinates":[4.8698359,52.3708243]},"properties":{"name":"Bilderdijkstraat","description":"tram_stop","_styleId":"tram"}},{"type":"Feature","geometry":{"type":"Point","coordinates":[4.8905961,52.3527058]},"properties":{"name":"De Pijp","description":"tram_stop","_styleId":"tram"}},{"type":"Feature","geometry":{"type":"Point","coordinates":[4.8750893,52.3630125]},"properties":{"name":"Overtoom/ 1e C. Huygensstraat","description":"tram_stop","_styleId":"tram"}},{"type":"Feature","geometry":{"type":"Point","coordinates":[4.8749794,52.363227]},"properties":{"name":"Overtoom/ 1e C. Huygensstraat","description":"tram_stop","_styleId":"tram"}},{"type":"Feature","geometry":{"type":"Point","coordinates":[4.8911566,52.3474774]},"properties":{"name":"Scheldestraat","description":"tram_stop","_styleId":"tram"}},{"type":"Feature","geometry":{"type":"Point","coordinates":[4.878318,52.3584538]},"properties":{"name":"Van Baerlestraat","description":"tram_stop","_styleId":"tram"}},{"type":"Feature","geometry":{"type":"Point","coordinates":[4.8781266,52.3587793]},"properties":{"name":"Van Baerlestraat","description":"tram_stop","_styleId":"tram"}},{"type":"Feature","geometry":{"type":"Point","coordinates":[4.9063478,52.3464278]},"properties":{"name":"Victorieplein","description":"tram_stop","_styleId":"tram"}},{"type":"Feature","geometry":{"type":"Point","coordinates":[4.9905047,52.3576998]},"properties":{"name":"Vennepluimstraat","description":"tram_stop","_styleId":"tram"}},{"type":"Feature","geometry":{"type":"Point","coordinates":[4.7944986,52.3509515]},"properties":{"name":"Baden Powellweg","description":"tram_stop","_styleId":"tram"}},{"type":"Feature","geometry":{"type":"Point","coordinates":[4.7881565,52.3496994]},"properties":{"name":"Ecuplein","description":"tram_stop","_styleId":"tram"}},{"type":"Feature","geometry":{"type":"Point","coordinates":[4.8262383,52.3577873]},"properties":{"name":"Johan Huizingalaan","description":"tram_stop","_styleId":"tram"}},{"type":"Feature","geometry":{"type":"Point","coordinates":[4.8258953,52.3578123]},"properties":{"name":"Johan Huizingalaan","description":"tram_stop","_styleId":"tram"}},{"type":"Feature","geometry":{"type":"Point","coordinates":[4.8865383,52.3659919]},"properties":{"name":"Keizersgracht","description":"tram_stop","_styleId":"tram"}},{"type":"Feature","geometry":{"type":"Point","coordinates":[4.8829717,52.3642233]},"properties":{"name":"Leidseplein","description":"tram_stop","_styleId":"tram"}},{"type":"Feature","geometry":{"type":"Point","coordinates":[4.8084929,52.3538423]},"properties":{"name":"Louis Davidsstraat","description":"tram_stop","_styleId":"tram"}},{"type":"Feature","geometry":{"type":"Point","coordinates":[4.7745043,52.3538687]},"properties":{"name":"Matterhorn","description":"tram_stop","_styleId":"tram"}},{"type":"Feature","geometry":{"type":"Point","coordinates":[4.8099119,52.35637]},"properties":{"name":"Meer en Vaart","description":"tram_stop","_styleId":"tram"}},{"type":"Feature","geometry":{"type":"Point","coordinates":[4.8845404,52.3650457]},"properties":{"name":"Prinsengracht","description":"tram_stop","_styleId":"tram"}},{"type":"Feature","geometry":{"type":"Point","coordinates":[4.8337835,52.3579004]},"properties":{"name":"Station Lelylaan","description":"tram_stop","_styleId":"tram"}},{"type":"Feature","geometry":{"type":"Point","coordinates":[4.8506975,52.3586176]},"properties":{"name":"Cura\u00e7aostraat","description":"tram_stop","_styleId":"tram"}},{"type":"Feature","geometry":{"type":"Point","coordinates":[4.8705851,52.3559987]},"properties":{"name":"Cornelis Schuytstraat","description":"tram_stop","_styleId":"tram"}},{"type":"Feature","geometry":{"type":"Point","coordinates":[4.8105405,52.3462812]},"properties":{"name":"Centrum Nieuw Sloten","description":"tram_stop","_styleId":"tram"}},{"type":"Feature","geometry":{"type":"Point","coordinates":[4.8250738,52.346707]},"properties":{"name":"Louwesweg","description":"tram_stop","_styleId":"tram"}},{"type":"Feature","geometry":{"type":"Point","coordinates":[4.88118,52.3816379]},"properties":{"name":"Nieuwe Willemsstraat","description":"tram_stop","_styleId":"tram"}},{"type":"Feature","geometry":{"type":"Point","coordinates":[4.8754111,52.3786007]},"properties":{"name":"Frederik Hendrikplantsoen","description":"tram_stop","_styleId":"tram"}},{"type":"Feature","geometry":{"type":"Point","coordinates":[4.8942153,52.3531905]},"properties":{"name":"Tweede Van der Helststraat","description":"tram_stop","_styleId":"tram"}},{"type":"Feature","geometry":{"type":"Point","coordinates":[4.9172481,52.3582391]},"properties":{"name":"Beukenweg","description":"tram_stop","_styleId":"tram"}},{"type":"Feature","geometry":{"type":"Point","coordinates":[4.9326128,52.3607965]},"properties":{"name":"Muiderpoortstation","description":"tram_stop","_styleId":"tram"}},{"type":"Feature","geometry":{"type":"Point","coordinates":[4.9137826,52.3583909]},"properties":{"name":"Camperstraat","description":"tram_stop","_styleId":"tram"}},{"type":"Feature","geometry":{"type":"Point","coordinates":[4.9297575,52.3610986]},"properties":{"name":"Dapperstraat","description":"tram_stop","_styleId":"tram"}},{"type":"Feature","geometry":{"type":"Point","coordinates":[4.9249118,52.3599165]},"properties":{"name":"Linnaeusstraat","description":"tram_stop","_styleId":"tram"}},{"type":"Feature","geometry":{"type":"Point","coordinates":[4.8768645,52.346674]},"properties":{"name":"Stadionweg","description":"tram_stop","_styleId":"tram"}},{"type":"Feature","geometry":{"type":"Point","coordinates":[4.8768834,52.3471425]},"properties":{"name":"Stadionweg","description":"tram_stop","_styleId":"tram"}},{"type":"Feature","geometry":{"type":"Point","coordinates":[4.8767749,52.3431074]},"properties":{"name":"Prinses Irenestraat","description":"tram_stop","_styleId":"tram"}},{"type":"Feature","geometry":{"type":"Point","coordinates":[4.8586095,52.3647872]},"properties":{"name":"Witte de Withstraat","description":"tram_stop","_styleId":"tram"}},{"type":"Feature","geometry":{"type":"Point","coordinates":[4.8487242,52.3729826]},"properties":{"name":"Jan van Galenstraat","description":"tram_stop","_styleId":"tram"}},{"type":"Feature","geometry":{"type":"Point","coordinates":[4.9185684,52.3633708]},"properties":{"name":"Alexanderplein","description":"tram_stop","_styleId":"tram"}},{"type":"Feature","geometry":{"type":"Point","coordinates":[4.9510568,52.3652467]},"properties":{"name":"Flevopark","description":"tram_stop","_styleId":"tram"}},{"type":"Feature","geometry":{"type":"Point","coordinates":[4.8978483,52.3594109]},"properties":{"name":"Frederiksplein","description":"tram_stop","_styleId":"tram"}},{"type":"Feature","geometry":{"type":"Point","coordinates":[4.9478662,52.3649431]},"properties":{"name":"Insulindeweg","description":"tram_stop","_styleId":"tram"}},{"type":"Feature","geometry":{"type":"Point","coordinates":[4.9433884,52.3621442]},"properties":{"name":"Soembawastraat","description":"tram_stop","_styleId":"tram"}},{"type":"Feature","geometry":{"type":"Point","coordinates":[4.8863802,52.3612917]},"properties":{"name":"Rijksmuseum","description":"tram_stop","_styleId":"tram"}},{"type":"Feature","geometry":{"type":"Point","coordinates":[4.9265233,52.3683184]},"properties":{"name":"Eerste Coehoornstraat","description":"tram_stop","_styleId":"tram"}},{"type":"Feature","geometry":{"type":"Point","coordinates":[4.9295997,52.3701978]},"properties":{"name":"Eerste Leeghwaterstraat","description":"tram_stop","_styleId":"tram"}},{"type":"Feature","geometry":{"type":"Point","coordinates":[4.9242477,52.3666491]},"properties":{"name":"Hoogte Kadijk","description":"tram_stop","_styleId":"tram"}},{"type":"Feature","geometry":{"type":"Point","coordinates":[4.9344011,52.372928]},"properties":{"name":"Rietlandpark","description":"tram_stop","_styleId":"tram"}},{"type":"Feature","geometry":{"type":"Point","coordinates":[4.877086,52.3831444]},"properties":{"name":"De Wittenkade","description":"tram_stop","_styleId":"tram"}},{"type":"Feature","geometry":{"type":"Point","coordinates":[4.8791525,52.3810685]},"properties":{"name":"Nassaukade","description":"tram_stop","_styleId":"tram"}},{"type":"Feature","geometry":{"type":"Point","coordinates":[4.8751351,52.3842946]},"properties":{"name":"Van Limburg Stirumplein","description":"tram_stop","_styleId":"tram"}},{"type":"Feature","geometry":{"type":"Point","coordinates":[4.8438216,52.3694429]},"properties":{"name":"Admiraal Helfrichstraat","description":"tram_stop","_styleId":"tram"}},{"type":"Feature","geometry":{"type":"Point","coordinates":[4.8068137,52.376923]},"properties":{"name":"Doctor H. Colijnstraat","description":"tram_stop","_styleId":"tram"}},{"type":"Feature","geometry":{"type":"Point","coordinates":[4.8381019,52.3714269]},"properties":{"name":"Jan Tooropstraat","description":"tram_stop","_styleId":"tram"}},{"type":"Feature","geometry":{"type":"Point","coordinates":[4.8378389,52.3697121]},"properties":{"name":"Jan Voermanstraat","description":"tram_stop","_styleId":"tram"}},{"type":"Feature","geometry":{"type":"Point","coordinates":[4.8350051,52.3732337]},"properties":{"name":"Jan van Galenstraat","description":"tram_stop","_styleId":"tram"}},{"type":"Feature","geometry":{"type":"Point","coordinates":[4.8514871,52.3702349]},"properties":{"name":"Mercatorplein","description":"tram_stop","_styleId":"tram"}},{"type":"Feature","geometry":{"type":"Point","coordinates":[4.9275974,52.3659034]},"properties":{"name":"Pontanusstraat","description":"tram_stop","_styleId":"tram"}},{"type":"Feature","geometry":{"type":"Point","coordinates":[4.9325945,52.3658377]},"properties":{"name":"Zeeburgerdijk","description":"tram_stop","_styleId":"tram"}},{"type":"Feature","geometry":{"type":"Point","coordinates":[4.8663865,52.3351971]},"properties":{"name":"De Boelelaan/VU","description":"tram_stop","_styleId":"tram"}},{"type":"Feature","geometry":{"type":"Point","coordinates":[4.8575004,52.3490455]},"properties":{"name":"Haarlemmermeerstation","description":"tram_stop","_styleId":"tram"}},{"type":"Feature","geometry":{"type":"Point","coordinates":[4.7917476,52.3565018]},"properties":{"name":"Baden Powellweg","description":"tram_stop","_styleId":"tram"}},{"type":"Feature","geometry":{"type":"Point","coordinates":[4.853247,52.3615937]},"properties":{"name":"Corantijnstraat","description":"tram_stop","_styleId":"tram"}},{"type":"Feature","geometry":{"type":"Point","coordinates":[4.7995669,52.3580819]},"properties":{"name":"Hoekenes","description":"tram_stop","_styleId":"tram"}},{"type":"Feature","geometry":{"type":"Point","coordinates":[4.8032041,52.3595388]},"properties":{"name":"Osdorpplein West","description":"tram_stop","_styleId":"tram"}},{"type":"Feature","geometry":{"type":"Point","coordinates":[4.8531487,52.3638557]},"properties":{"name":"Postjesweg","description":"tram_stop","_styleId":"tram"}},{"type":"Feature","geometry":{"type":"Point","coordinates":[4.8080582,52.358636]},"properties":{"name":"Osdorpplein Oost","description":"tram_stop","_styleId":"tram"}},{"type":"Feature","geometry":{"type":"Point","coordinates":[4.8720137,52.346695]},"properties":{"name":"Minervaplein","description":"tram_stop","_styleId":"tram"}},{"type":"Feature","geometry":{"type":"Point","coordinates":[4.8666421,52.3463735]},"properties":{"name":"Olympiaplein","description":"tram_stop","_styleId":"tram"}},{"type":"Feature","geometry":{"type":"Point","coordinates":[4.8586416,52.3452686]},"properties":{"name":"Olympiaweg","description":"tram_stop","_styleId":"tram"}},{"type":"Feature","geometry":{"type":"Point","coordinates":[4.8469734,52.3763312]},"properties":{"name":"Erasmusgracht","description":"tram_stop","_styleId":"tram"}},{"type":"Feature","geometry":{"type":"Point","coordinates":[4.852596,52.3669952]},"properties":{"name":"W. Schoutenstraat","description":"tram_stop","_styleId":"tram"}},{"type":"Feature","geometry":{"type":"Point","coordinates":[4.8523612,52.3673886]},"properties":{"name":"W. Schoutenstraat","description":"tram_stop","_styleId":"tram"}},{"type":"Feature","geometry":{"type":"Point","coordinates":[4.8450157,52.3515947]},"properties":{"name":"Westlandgracht","description":"tram_stop","_styleId":"tram"}},{"type":"Feature","geometry":{"type":"Point","coordinates":[4.8692108,52.3219463]},"properties":{"name":"Uilenstede","description":"tram_stop","_styleId":"tram"}},{"type":"Feature","geometry":{"type":"Point","coordinates":[4.9682901,52.3693154]},"properties":{"name":"Bob Haarmslaan","description":"tram_stop","_styleId":"tram"}},{"type":"Feature","geometry":{"type":"Point","coordinates":[4.9620598,52.356795]},"properties":{"name":"(unnamed)","description":"ferry_terminal","_styleId":"ferry"}},{"type":"Feature","geometry":{"type":"Point","coordinates":[4.9622031,52.3569031]},"properties":{"name":"(unnamed)","description":"ferry_terminal","_styleId":"ferry"}},{"type":"Feature","geometry":{"type":"Point","coordinates":[4.8381062,52.3890317]},"properties":{"name":"Amsterdam Sloterdijk","description":"station","_styleId":"rail"}},{"type":"Feature","geometry":{"type":"Point","coordinates":[4.9470883,52.3122449]},"properties":{"name":"Amsterdam Bijlmer ArenA","description":"station","_styleId":"rail"}},{"type":"Feature","geometry":{"type":"Point","coordinates":[4.9175567,52.3464656]},"properties":{"name":"Amsterdam Amstel","description":"station","_styleId":"rail"}},{"type":"Feature","geometry":{"type":"Point","coordinates":[4.9890129,52.296338]},"properties":{"name":"Gein","description":"station","_styleId":"rail"}},{"type":"Feature","geometry":{"type":"Point","coordinates":[4.9744218,52.2956478]},"properties":{"name":"Reigersbos","description":"station","_styleId":"rail"}},{"type":"Feature","geometry":{"type":"Point","coordinates":[4.9843223,52.3113175]},"properties":{"name":"Gaasperplas","description":"station","_styleId":"rail"}},{"type":"Feature","geometry":{"type":"Point","coordinates":[4.9735502,52.3230792]},"properties":{"name":"Ganzenhoef","description":"station","_styleId":"rail"}},{"type":"Feature","geometry":{"type":"Point","coordinates":[4.9791233,52.3170313]},"properties":{"name":"Kraaiennest","description":"station","_styleId":"rail"}},{"type":"Feature","geometry":{"type":"Point","coordinates":[4.9463398,52.3267669]},"properties":{"name":"Venserpolder","description":"station","_styleId":"rail"}},{"type":"Feature","geometry":{"type":"Point","coordinates":[4.9365267,52.3235787]},"properties":{"name":"Duivendrecht","description":"station","_styleId":"rail"}},{"type":"Feature","geometry":{"type":"Point","coordinates":[4.8902289,52.3370349]},"properties":{"name":"Amsterdam RAI","description":"station","_styleId":"rail"}},{"type":"Feature","geometry":{"type":"Point","coordinates":[4.9413557,52.3185355]},"properties":{"name":"Strandvliet","description":"station","_styleId":"rail"}},{"type":"Feature","geometry":{"type":"Point","coordinates":[4.9522364,52.3066107]},"properties":{"name":"Bullewijk","description":"station","_styleId":"rail"}},{"type":"Feature","geometry":{"type":"Point","coordinates":[4.8343026,52.3524713]},"properties":{"name":"Heemstedestraat","description":"station","_styleId":"rail"}},{"type":"Feature","geometry":{"type":"Point","coordinates":[4.9662522,52.328939]},"properties":{"name":"Verrijn Stuartweg","description":"station","_styleId":"rail"}},{"type":"Feature","geometry":{"type":"Point","coordinates":[4.9210115,52.3399595]},"properties":{"name":"Spaklerweg","description":"station","_styleId":"rail"}},{"type":"Feature","geometry":{"type":"Point","coordinates":[4.9120253,52.3544624]},"properties":{"name":"Wibautstraat","description":"station","_styleId":"rail"}},{"type":"Feature","geometry":{"type":"Point","coordinates":[4.9008788,52.3713176]},"properties":{"name":"Nieuwmarkt","description":"station","_styleId":"rail"}},{"type":"Feature","geometry":{"type":"Point","coordinates":[4.8345025,52.3464029]},"properties":{"name":"Henk Sneevlietweg","description":"station","_styleId":"rail"}},{"type":"Feature","geometry":{"type":"Point","coordinates":[4.8340268,52.3578369]},"properties":{"name":"Amsterdam Lelylaan","description":"station","_styleId":"rail"}},{"type":"Feature","geometry":{"type":"Point","coordinates":[4.8507911,52.3951713]},"properties":{"name":"Isolatorweg","description":"station","_styleId":"rail"}},{"type":"Feature","geometry":{"type":"Point","coordinates":[4.8339612,52.3642921]},"properties":{"name":"Postjesweg","description":"station","_styleId":"rail"}},{"type":"Feature","geometry":{"type":"Point","coordinates":[4.86881,52.3325889]},"properties":{"name":"A. J. Ernststraat","description":"tram_stop","_styleId":"tram"}},{"type":"Feature","geometry":{"type":"Point","coordinates":[4.8690235,52.3248966]},"properties":{"name":"Van Boshuizenstraat","description":"tram_stop","_styleId":"tram"}},{"type":"Feature","geometry":{"type":"Point","coordinates":[4.9520015,52.3067895]},"properties":{"name":"Bullewijk","description":"stop","_styleId":"rail"}},{"type":"Feature","geometry":{"type":"Point","coordinates":[4.989299,52.2962711]},"properties":{"name":"Gein","description":"stop","_styleId":"rail"}},{"type":"Feature","geometry":{"type":"Point","coordinates":[4.9414198,52.3183621]},"properties":{"name":"Strandvliet","description":"stop","_styleId":"rail"}},{"type":"Feature","geometry":{"type":"Point","coordinates":[4.8543795,52.3352719]},"properties":{"name":"Jollenpad","description":"tram_stop","_styleId":"tram"}},{"type":"Feature","geometry":{"type":"Point","coordinates":[4.8560952,52.3305598]},"properties":{"name":"Koenenkade","description":"tram_stop","_styleId":"tram"}},{"type":"Feature","geometry":{"type":"Point","coordinates":[4.9005805,52.378901]},"properties":{"name":"Amsterdam Centraal","description":"station","_styleId":"rail"}},{"type":"Feature","geometry":{"type":"Point","coordinates":[4.8565037,52.3218182]},"properties":{"name":"Kalfjeslaan","description":"tram_stop","_styleId":"tram"}},{"type":"Feature","geometry":{"type":"Point","coordinates":[4.7684256,52.384644]},"properties":{"name":"(unnamed)","description":"ferry_terminal","_styleId":"ferry"}},{"type":"Feature","geometry":{"type":"Point","coordinates":[4.7684953,52.3846425]},"properties":{"name":"(unnamed)","description":"ferry_terminal","_styleId":"ferry"}},{"type":"Feature","geometry":{"type":"Point","coordinates":[4.8467105,52.385873]},"properties":{"name":"Molenwerf","description":"tram_stop","_styleId":"tram"}},{"type":"Feature","geometry":{"type":"Point","coordinates":[4.9272548,52.357015]},"properties":{"name":"Oostpoort","description":"tram_stop","_styleId":"tram"}},{"type":"Feature","geometry":{"type":"Point","coordinates":[4.9268761,52.3574304]},"properties":{"name":"Oostpoort","description":"tram_stop","_styleId":"tram"}},{"type":"Feature","geometry":{"type":"Point","coordinates":[4.8901771,52.3526769]},"properties":{"name":"De Pijp","description":"tram_stop","_styleId":"tram"}},{"type":"Feature","geometry":{"type":"Point","coordinates":[4.8907033,52.3570037]},"properties":{"name":"Marie Heinekenplein","description":"tram_stop","_styleId":"tram"}},{"type":"Feature","geometry":{"type":"Point","coordinates":[4.8931342,52.3662653]},"properties":{"name":"Muntplein","description":"tram_stop","_styleId":"tram"}},{"type":"Feature","geometry":{"type":"Point","coordinates":[4.8930838,52.3659135]},"properties":{"name":"Muntplein","description":"tram_stop","_styleId":"tram"}},{"type":"Feature","geometry":{"type":"Point","coordinates":[4.8907718,52.3571177]},"properties":{"name":"Marie Heinekenplein","description":"tram_stop","_styleId":"tram"}},{"type":"Feature","geometry":{"type":"Point","coordinates":[4.8509865,52.3442966]},"properties":{"name":"Jan Wilsbrug","description":"tram_stop","_styleId":"tram"}},{"type":"Feature","geometry":{"type":"Point","coordinates":[4.8520759,52.3465483]},"properties":{"name":"Remise Karperweg","description":"tram_stop","_styleId":"tram"}},{"type":"Feature","geometry":{"type":"Point","coordinates":[4.8563405,52.3493953]},"properties":{"name":"Haarlemmermeerstation","description":"tram_stop","_styleId":"tram"}},{"type":"Feature","geometry":{"type":"Point","coordinates":[4.8565395,52.3274177]},"properties":{"name":"Van Nijenrodeweg","description":"tram_stop","_styleId":"tram"}},{"type":"Feature","geometry":{"type":"Point","coordinates":[4.8810698,52.3632085]},"properties":{"name":"Leidseplein","description":"tram_stop","_styleId":"tram"}},{"type":"Feature","geometry":{"type":"Point","coordinates":[4.8731849,52.3408165]},"properties":{"name":"Station Zuid","description":"tram_stop","_styleId":"tram"}},{"type":"Feature","geometry":{"type":"Point","coordinates":[4.873191,52.3388074]},"properties":{"name":"Amsterdam Zuid","description":"station","_styleId":"rail"}},{"type":"Feature","geometry":{"type":"Point","coordinates":[4.8746127,52.3392032]},"properties":{"name":"Zuid","description":"station","_styleId":"rail"}},{"type":"Feature","geometry":{"type":"Point","coordinates":[4.838877,52.3890161]},"properties":{"name":"Station Sloterdijk","description":"station","_styleId":"rail"}},{"type":"Feature","geometry":{"type":"Point","coordinates":[4.8893261,52.3377124]},"properties":{"name":"Station RAI","description":"station","_styleId":"rail"}},{"type":"Feature","geometry":{"type":"Point","coordinates":[4.898949,52.3620972]},"properties":{"name":"Prinsengracht","description":"tram_stop","_styleId":"tram"}},{"type":"Feature","geometry":{"type":"Point","coordinates":[4.8989773,52.3621338]},"properties":{"name":"Prinsengracht","description":"tram_stop","_styleId":"tram"}},{"type":"Feature","geometry":{"type":"Point","coordinates":[4.9009578,52.3774316]},"properties":{"name":"Centraal Station","description":"station","_styleId":"rail"}},{"type":"Feature","geometry":{"type":"Point","coordinates":[4.9697229,52.3364299]},"properties":{"name":"Sniep","description":"tram_stop","_styleId":"tram"}},{"type":"Feature","geometry":{"type":"Point","coordinates":[4.9178945,52.347445]},"properties":{"name":"Amstelstation","description":"tram_stop","_styleId":"tram"}},{"type":"Feature","geometry":{"type":"Point","coordinates":[4.8860225,52.3921894]},"properties":{"name":"Pontsteiger","description":"ferry_terminal","_styleId":"ferry"}},{"type":"Feature","geometry":{"type":"Point","coordinates":[4.8914727,52.3416064]},"properties":{"name":"Europaplein","description":"station","_styleId":"rail"}},{"type":"Feature","geometry":{"type":"Point","coordinates":[4.8906926,52.3539754]},"properties":{"name":"De Pijp","description":"station","_styleId":"rail"}},{"type":"Feature","geometry":{"type":"Point","coordinates":[4.8911646,52.3608169]},"properties":{"name":"Vijzelgracht","description":"station","_styleId":"rail"}},{"type":"Feature","geometry":{"type":"Point","coordinates":[4.9187004,52.3889316]},"properties":{"name":"Noorderpark","description":"station","_styleId":"rail"}},{"type":"Feature","geometry":{"type":"Point","coordinates":[4.9323589,52.4019931]},"properties":{"name":"Noord","description":"station","_styleId":"rail"}},{"type":"Feature","geometry":{"type":"Point","coordinates":[4.9000102,52.3596835]},"properties":{"name":"Frederiksplein","description":"tram_stop","_styleId":"tram"}},{"type":"Feature","geometry":{"type":"Point","coordinates":[4.8925358,52.3594772]},"properties":{"name":"Vijzelgracht","description":"tram_stop","_styleId":"tram"}},{"type":"Feature","geometry":{"type":"Point","coordinates":[4.7670464,52.3849028]},"properties":{"name":"(unnamed)","description":"ferry_terminal","_styleId":"ferry"}},{"type":"Feature","geometry":{"type":"Point","coordinates":[4.78248,52.3880193]},"properties":{"name":"(unnamed)","description":"ferry_terminal","_styleId":"ferry"}},{"type":"Feature","geometry":{"type":"Point","coordinates":[4.7825738,52.387969]},"properties":{"name":"(unnamed)","description":"ferry_terminal","_styleId":"ferry"}},{"type":"Feature","geometry":{"type":"Point","coordinates":[4.7671538,52.3849062]},"properties":{"name":"(unnamed)","description":"ferry_terminal","_styleId":"ferry"}},{"type":"Feature","geometry":{"type":"Point","coordinates":[4.80329,52.3858068]},"properties":{"name":"(unnamed)","description":"ferry_terminal","_styleId":"ferry"}},{"type":"Feature","geometry":{"type":"Point","coordinates":[4.8032028,52.385727]},"properties":{"name":"(unnamed)","description":"ferry_terminal","_styleId":"ferry"}},{"type":"Feature","geometry":{"type":"Point","coordinates":[4.9613021,52.3382375]},"properties":{"name":"Diemerbrug","description":"tram_stop","_styleId":"tram"}},{"type":"Feature","geometry":{"type":"Point","coordinates":[4.8703967,52.3706445]},"properties":{"name":"De Clercqstraat","description":"tram_stop","_styleId":"tram"}},{"type":"Feature","geometry":{"type":"Point","coordinates":[4.9178096,52.3474274]},"properties":{"name":"Amstelstation","description":"tram_stop","_styleId":"tram"}},{"type":"Feature","geometry":{"type":"Point","coordinates":[4.8954127,52.3470662]},"properties":{"name":"Maasstraat","description":"tram_stop","_styleId":"tram"}},{"type":"Feature","geometry":{"type":"Point","coordinates":[4.8947303,52.3468163]},"properties":{"name":"Maasstraat","description":"tram_stop","_styleId":"tram"}},{"type":"Feature","geometry":{"type":"Point","coordinates":[4.8992878,52.3783193]},"properties":{"name":"Centraal Station","description":"tram_stop","_styleId":"tram"}},{"type":"Feature","geometry":{"type":"Point","coordinates":[4.8991546,52.3782813]},"properties":{"name":"Centraal Station","description":"tram_stop","_styleId":"tram"}},{"type":"Feature","geometry":{"type":"Point","coordinates":[4.8992178,52.378303]},"properties":{"name":"Centraal Station","description":"tram_stop","_styleId":"tram"}},{"type":"Feature","geometry":{"type":"Point","coordinates":[4.8993575,52.3783416]},"properties":{"name":"Centraal Station","description":"tram_stop","_styleId":"tram"}},{"type":"Feature","geometry":{"type":"Point","coordinates":[4.8500681,52.3704058]},"properties":{"name":"Mercatorplein","description":"tram_stop","_styleId":"tram"}},{"type":"Feature","geometry":{"type":"Point","coordinates":[4.8499792,52.3706818]},"properties":{"name":"Mercatorplein","description":"tram_stop","_styleId":"tram"}},{"type":"Feature","geometry":{"type":"Point","coordinates":[4.8464503,52.3771987]},"properties":{"name":"Bos en Lommerplein","description":"tram_stop","_styleId":"tram"}},{"type":"Feature","geometry":{"type":"Point","coordinates":[4.8657924,52.360364]},"properties":{"name":"Jan Pieter Heijestraat","description":"tram_stop","_styleId":"tram"}},{"type":"Feature","geometry":{"type":"Point","coordinates":[4.853975,52.3642479]},"properties":{"name":"Hoofdweg","description":"tram_stop","_styleId":"tram"}},{"type":"Feature","geometry":{"type":"Point","coordinates":[4.903158,52.3517731]},"properties":{"name":"Lutmastraat","description":"tram_stop","_styleId":"tram"}},{"type":"Feature","geometry":{"type":"Point","coordinates":[4.9010846,52.371353]},"properties":{"name":"Nieuwmarkt","description":"stop","_styleId":"rail"}},{"type":"Feature","geometry":{"type":"Point","coordinates":[4.9036061,52.3666262]},"properties":{"name":"Waterlooplein","description":"stop","_styleId":"rail"}},{"type":"Feature","geometry":{"type":"Point","coordinates":[4.9037527,52.3666905]},"properties":{"name":"Waterlooplein","description":"stop","_styleId":"rail"}},{"type":"Feature","geometry":{"type":"Point","coordinates":[4.9009379,52.3714238]},"properties":{"name":"Nieuwmarkt","description":"stop","_styleId":"rail"}},{"type":"Feature","geometry":{"type":"Point","coordinates":[4.9079182,52.3613263]},"properties":{"name":"Weesperplein","description":"stop","_styleId":"rail"}},{"type":"Feature","geometry":{"type":"Point","coordinates":[4.9078472,52.3612993]},"properties":{"name":"Weesperplein","description":"stop","_styleId":"rail"}},{"type":"Feature","geometry":{"type":"Point","coordinates":[4.8923379,52.3593327]},"properties":{"name":"Vijzelgracht","description":"tram_stop","_styleId":"tram"}},{"type":"Feature","geometry":{"type":"Point","coordinates":[4.9310414,52.3534088]},"properties":{"name":"Hogeweg","description":"tram_stop","_styleId":"tram"}},{"type":"Feature","geometry":{"type":"Point","coordinates":[4.8828562,52.3527563]},"properties":{"name":"Roelof Hartplein","description":"tram_stop","_styleId":"tram"}},{"type":"Feature","geometry":{"type":"Point","coordinates":[4.8820747,52.3526434]},"properties":{"name":"Roelof Hartplein","description":"tram_stop","_styleId":"tram"}},{"type":"Feature","geometry":{"type":"Point","coordinates":[4.948315,52.352926]},"properties":{"name":"Amsterdam Science Park","description":"station","_styleId":"rail"}},{"type":"Feature","geometry":{"type":"Point","coordinates":[4.967465,52.3452067]},"properties":{"name":"Diemen","description":"station","_styleId":"rail"}},{"type":"Feature","geometry":{"type":"Point","coordinates":[4.878697,52.3778833]},"properties":{"name":"Marnixplein","description":"tram_stop","_styleId":"tram"}},{"type":"Feature","geometry":{"type":"Point","coordinates":[5.0036976,52.3532026]},"properties":{"name":"Haven IJburg","description":"ferry_terminal","_styleId":"ferry"}},{"type":"Feature","geometry":{"type":"Point","coordinates":[4.7762255,52.3800699]},"properties":{"name":"(unnamed)","description":"ferry_terminal","_styleId":"ferry"}},{"type":"Feature","geometry":{"type":"Point","coordinates":[4.7760718,52.3800664]},"properties":{"name":"(unnamed)","description":"ferry_terminal","_styleId":"ferry"}},{"type":"Feature","geometry":{"type":"Point","coordinates":[4.8893472,52.3677211]},"properties":{"name":"Koningsplein","description":"tram_stop","_styleId":"tram"}},{"type":"Feature","geometry":{"type":"Point","coordinates":[4.8804736,52.3586751]},"properties":{"name":"Museumplein","description":"tram_stop","_styleId":"tram"}},{"type":"Feature","geometry":{"type":"Point","coordinates":[4.9009058,52.3791977]},"properties":{"name":"Centraal Station","description":"station","_styleId":"rail"}},{"type":"Feature","geometry":{"type":"Point","coordinates":[4.8805299,52.3586778]},"properties":{"name":"Museumplein","description":"tram_stop","_styleId":"tram"}},{"type":"Feature","geometry":{"type":"Point","coordinates":[4.9986825,52.3259231]},"properties":{"name":"(unnamed)","description":"ferry_terminal","_styleId":"ferry"}},{"type":"Feature","geometry":{"type":"Point","coordinates":[4.9059863,52.3786651]},"properties":{"name":"Centraal Station","description":"ferry_terminal","_styleId":"ferry"}},{"type":"Feature","geometry":{"type":"Point","coordinates":[4.9141489,52.3624363]},"properties":{"name":"Korte 's-Gravesandestraat","description":"tram_stop","_styleId":"tram"}},{"type":"Feature","geometry":{"type":"Point","coordinates":[4.8914418,52.3493102]},"properties":{"name":"v. Hilligaertstraat","description":"tram_stop","_styleId":"tram"}},{"type":"Feature","geometry":{"type":"Point","coordinates":[4.9057531,52.3786952]},"properties":{"name":"Centraal Station","description":"ferry_terminal","_styleId":"ferry"}},{"type":"Feature","geometry":{"type":"Point","coordinates":[4.908295,52.3816808]},"properties":{"name":"IJplein","description":"ferry_terminal","_styleId":"ferry"}},{"type":"Feature","geometry":{"type":"Point","coordinates":[4.8861187,52.3921172]},"properties":{"name":"Pontsteiger","description":"ferry_terminal","_styleId":"ferry"}},{"type":"Feature","geometry":{"type":"Point","coordinates":[4.8906411,52.3719007]},"properties":{"name":"Paleisstraat","description":"tram_stop","_styleId":"tram"}},{"type":"Feature","geometry":{"type":"Point","coordinates":[4.9498098,52.3744644]},"properties":{"name":"Sporenburg","description":"ferry_terminal","_styleId":"ferry"}},{"type":"Feature","geometry":{"type":"Point","coordinates":[4.9559568,52.375741]},"properties":{"name":"Sluisbuurt","description":"ferry_terminal","_styleId":"ferry"}},{"type":"Feature","geometry":{"type":"Point","coordinates":[4.9899502,52.3580579]},"properties":{"name":"Vennepluimstraat","description":"tram_stop","_styleId":"tram"}},{"type":"Feature","geometry":{"type":"Point","coordinates":[4.8553753,52.3549726]},"properties":{"name":"Oranje Nassaulaan","description":"tram_stop","_styleId":"tram"}},{"type":"Feature","geometry":{"type":"Point","coordinates":[4.9388387,52.3615386]},"properties":{"name":"Molukkenstraat","description":"tram_stop","_styleId":"tram"}},{"type":"Feature","geometry":{"type":"Point","coordinates":[4.8917191,52.3747581]},"properties":{"name":"Dam","description":"tram_stop","_styleId":"tram"}},{"type":"Feature","geometry":{"type":"Point","coordinates":[4.903277,52.3790052]},"properties":{"name":"Centraal Station","description":"tram_stop","_styleId":"tram"}},{"type":"Feature","geometry":{"type":"Point","coordinates":[4.8914559,52.3497109]},"properties":{"name":"v. Hilligaertstraat","description":"tram_stop","_styleId":"tram"}},{"type":"Feature","geometry":{"type":"Point","coordinates":[4.8179757,52.3757902]},"properties":{"name":"Slotermeerlaan","description":"tram_stop","_styleId":"tram"}},{"type":"Feature","geometry":{"type":"Point","coordinates":[4.8129201,52.3763175]},"properties":{"name":"Burgemeester Van Leeuwenlaan","description":"tram_stop","_styleId":"tram"}},{"type":"Feature","geometry":{"type":"Point","coordinates":[4.8994975,52.3572692]},"properties":{"name":"Albert Cuypstraat","description":"tram_stop","_styleId":"tram"}},{"type":"Feature","geometry":{"type":"Point","coordinates":[5.0026504,52.3531558]},"properties":{"name":"(unnamed)","description":"ferry_terminal","_styleId":"ferry"}},{"type":"Feature","geometry":{"type":"Point","coordinates":[5.0026638,52.353213]},"properties":{"name":"(unnamed)","description":"ferry_terminal","_styleId":"ferry"}},{"type":"Feature","geometry":{"type":"Point","coordinates":[4.939266,52.361567]},"properties":{"name":"Molukkenstraat","description":"tram_stop","_styleId":"tram"}},{"type":"Feature","geometry":{"type":"Point","coordinates":[4.9109957,52.3625747]},"properties":{"name":"Roetersstraat","description":"tram_stop","_styleId":"tram"}},{"type":"Feature","geometry":{"type":"Point","coordinates":[4.9112171,52.3620879]},"properties":{"name":"Roetersstraat","description":"tram_stop","_styleId":"tram"}},{"type":"Feature","geometry":{"type":"Point","coordinates":[4.9094614,52.3675402]},"properties":{"name":"Plantage Parklaan","description":"tram_stop","_styleId":"tram"}},{"type":"Feature","geometry":{"type":"Point","coordinates":[4.9124417,52.3671549]},"properties":{"name":"Artis/Holocaustmuseum","description":"tram_stop","_styleId":"tram"}},{"type":"Feature","geometry":{"type":"Point","coordinates":[4.8810259,52.420431]},"properties":{"name":"Oostzanerdijk","description":"bus_stop","_styleId":"bus"}},{"type":"Feature","geometry":{"type":"Point","coordinates":[4.8814576,52.4202023]},"properties":{"name":"Oostzanerdijk","description":"bus_stop","_styleId":"bus"}},{"type":"Feature","geometry":{"type":"Point","coordinates":[4.8828852,52.4166172]},"properties":{"name":"Kometensingel","description":"bus_stop","_styleId":"bus"}},{"type":"Feature","geometry":{"type":"Point","coordinates":[4.8825447,52.4165291]},"properties":{"name":"Kometensingel","description":"bus_stop","_styleId":"bus"}},{"type":"Feature","geometry":{"type":"Point","coordinates":[4.8920308,52.4161839]},"properties":{"name":"Standerdmolen","description":"bus_stop","_styleId":"bus"}},{"type":"Feature","geometry":{"type":"Point","coordinates":[4.893282,52.4162683]},"properties":{"name":"Standerdmolen","description":"bus_stop","_styleId":"bus"}},{"type":"Feature","geometry":{"type":"Point","coordinates":[4.8812229,52.4147148]},"properties":{"name":"Meteorenweg","description":"bus_stop","_styleId":"bus"}},{"type":"Feature","geometry":{"type":"Point","coordinates":[4.9464075,52.3054856]},"properties":{"name":"Karspeldreef","description":"bus_stop","_styleId":"bus"}},{"type":"Feature","geometry":{"type":"Point","coordinates":[4.9442557,52.3078114]},"properties":{"name":"Gebouw Atlas","description":"bus_stop","_styleId":"bus"}},{"type":"Feature","geometry":{"type":"Point","coordinates":[4.9469146,52.3044188]},"properties":{"name":"Karspeldreef","description":"bus_stop","_styleId":"bus"}},{"type":"Feature","geometry":{"type":"Point","coordinates":[4.8449423,52.3777943]},"properties":{"name":"Bos en Lommerplein","description":"bus_stop","_styleId":"bus"}},{"type":"Feature","geometry":{"type":"Point","coordinates":[4.9499148,52.3127497]},"properties":{"name":"Foppingadreef","description":"bus_stop","_styleId":"bus"}},{"type":"Feature","geometry":{"type":"Point","coordinates":[4.881148,52.36196]},"properties":{"name":"Leidseplein","description":"bus_stop","_styleId":"bus"}},{"type":"Feature","geometry":{"type":"Point","coordinates":[4.7932054,52.3415953]},"properties":{"name":"Langsom","description":"bus_stop","_styleId":"bus"}},{"type":"Feature","geometry":{"type":"Point","coordinates":[4.7932052,52.3418043]},"properties":{"name":"Langsom","description":"bus_stop","_styleId":"bus"}},{"type":"Feature","geometry":{"type":"Point","coordinates":[4.9398939,52.3296982]},"properties":{"name":"Korenbloemstraat","description":"bus_stop","_styleId":"bus"}},{"type":"Feature","geometry":{"type":"Point","coordinates":[4.9401368,52.3300357]},"properties":{"name":"Korenbloemstraat","description":"bus_stop","_styleId":"bus"}},{"type":"Feature","geometry":{"type":"Point","coordinates":[4.9409875,52.3325137]},"properties":{"name":"Plataanstraat","description":"bus_stop","_styleId":"bus"}},{"type":"Feature","geometry":{"type":"Point","coordinates":[4.9410663,52.3323712]},"properties":{"name":"Plataanstraat","description":"bus_stop","_styleId":"bus"}},{"type":"Feature","geometry":{"type":"Point","coordinates":[4.8930079,52.4201262]},"properties":{"name":"Zuideinde","description":"bus_stop","_styleId":"bus"}},{"type":"Feature","geometry":{"type":"Point","coordinates":[4.892863,52.4200771]},"properties":{"name":"Zuideinde","description":"bus_stop","_styleId":"bus"}},{"type":"Feature","geometry":{"type":"Point","coordinates":[4.8918905,52.4211175]},"properties":{"name":"Zuideinde/Molenaarsweg","description":"bus_stop","_styleId":"bus"}},{"type":"Feature","geometry":{"type":"Point","coordinates":[4.8911774,52.4219883]},"properties":{"name":"Zuideinde/Molenaarsweg","description":"bus_stop","_styleId":"bus"}},{"type":"Feature","geometry":{"type":"Point","coordinates":[4.8886412,52.4245606]},"properties":{"name":"Zuideinde/Viaduct","description":"bus_stop","_styleId":"bus"}},{"type":"Feature","geometry":{"type":"Point","coordinates":[4.888683,52.4246113]},"properties":{"name":"Zuideinde/Viaduct","description":"bus_stop","_styleId":"bus"}},{"type":"Feature","geometry":{"type":"Point","coordinates":[4.9507867,52.354496]},"properties":{"name":"Science Park","description":"bus_stop","_styleId":"bus"}},{"type":"Feature","geometry":{"type":"Point","coordinates":[4.9582997,52.3543431]},"properties":{"name":"Science Park Terra","description":"bus_stop","_styleId":"bus"}},{"type":"Feature","geometry":{"type":"Point","coordinates":[4.9541376,52.3559759]},"properties":{"name":"Science Park Aqua","description":"bus_stop","_styleId":"bus"}},{"type":"Feature","geometry":{"type":"Point","coordinates":[4.9526721,52.3552122]},"properties":{"name":"Science Park Aer","description":"bus_stop","_styleId":"bus"}},{"type":"Feature","geometry":{"type":"Point","coordinates":[4.9507583,52.3546283]},"properties":{"name":"Science Park","description":"bus_stop","_styleId":"bus"}},{"type":"Feature","geometry":{"type":"Point","coordinates":[4.952165,52.3547493]},"properties":{"name":"Science Park Aer","description":"bus_stop","_styleId":"bus"}},{"type":"Feature","geometry":{"type":"Point","coordinates":[4.9442634,52.3577153]},"properties":{"name":"C. Mac Gillavrylaan","description":"bus_stop","_styleId":"bus"}},{"type":"Feature","geometry":{"type":"Point","coordinates":[4.9446655,52.357613]},"properties":{"name":"C. Mac Gillavrylaan","description":"bus_stop","_styleId":"bus"}},{"type":"Feature","geometry":{"type":"Point","coordinates":[4.9408343,52.3589967]},"properties":{"name":"Valentijnkade","description":"bus_stop","_styleId":"bus"}},{"type":"Feature","geometry":{"type":"Point","coordinates":[4.9328607,52.3613445]},"properties":{"name":"Muiderpoortstation","description":"bus_stop","_styleId":"bus"}},{"type":"Feature","geometry":{"type":"Point","coordinates":[4.9477449,52.3523594]},"properties":{"name":"Station Science Park","description":"bus_stop","_styleId":"bus"}},{"type":"Feature","geometry":{"type":"Point","coordinates":[4.9414936,52.3487119]},"properties":{"name":"Linnaeusparkweg","description":"bus_stop","_styleId":"bus"}},{"type":"Feature","geometry":{"type":"Point","coordinates":[4.9365555,52.3455153]},"properties":{"name":"Pekelharingstraat","description":"bus_stop","_styleId":"bus"}},{"type":"Feature","geometry":{"type":"Point","coordinates":[4.9318949,52.3458716]},"properties":{"name":"Lorentzlaan","description":"bus_stop","_styleId":"bus"}},{"type":"Feature","geometry":{"type":"Point","coordinates":[4.9314393,52.3463777]},"properties":{"name":"Lorentzlaan","description":"bus_stop","_styleId":"bus"}},{"type":"Feature","geometry":{"type":"Point","coordinates":[4.928604,52.3472783]},"properties":{"name":"Maxwellstraat","description":"bus_stop","_styleId":"bus"}},{"type":"Feature","geometry":{"type":"Point","coordinates":[4.9243202,52.3460015]},"properties":{"name":"Fizeaustraat","description":"bus_stop","_styleId":"bus"}},{"type":"Feature","geometry":{"type":"Point","coordinates":[4.9246623,52.3458654]},"properties":{"name":"Fizeaustraat","description":"bus_stop","_styleId":"bus"}},{"type":"Feature","geometry":{"type":"Point","coordinates":[4.8042516,52.3656126]},"properties":{"name":"Ookmeerweg","description":"bus_stop","_styleId":"bus"}},{"type":"Feature","geometry":{"type":"Point","coordinates":[4.8042144,52.3659913]},"properties":{"name":"Ookmeerweg","description":"bus_stop","_styleId":"bus"}},{"type":"Feature","geometry":{"type":"Point","coordinates":[4.8514928,52.3702166]},"properties":{"name":"Mercatorplein","description":"bus_stop","_styleId":"bus"}},{"type":"Feature","geometry":{"type":"Point","coordinates":[4.8500384,52.3703961]},"properties":{"name":"Mercatorplein","description":"bus_stop","_styleId":"bus"}},{"type":"Feature","geometry":{"type":"Point","coordinates":[4.8507854,52.3701648]},"properties":{"name":"Mercatorplein","description":"bus_stop","_styleId":"bus"}},{"type":"Feature","geometry":{"type":"Point","coordinates":[4.8696069,52.3245559]},"properties":{"name":"Van Boshuizenstraat","description":"bus_stop","_styleId":"bus"}},{"type":"Feature","geometry":{"type":"Point","coordinates":[4.8279702,52.3410802]},"properties":{"name":"IBM","description":"bus_stop","_styleId":"bus"}},{"type":"Feature","geometry":{"type":"Point","coordinates":[4.9679196,52.2992109]},"properties":{"name":"Meernhof","description":"bus_stop","_styleId":"bus"}},{"type":"Feature","geometry":{"type":"Point","coordinates":[4.9670529,52.2997204]},"properties":{"name":"Meernhof","description":"bus_stop","_styleId":"bus"}},{"type":"Feature","geometry":{"type":"Point","coordinates":[4.9700319,52.298071]},"properties":{"name":"Rhenenhof","description":"bus_stop","_styleId":"bus"}},{"type":"Feature","geometry":{"type":"Point","coordinates":[4.9708602,52.2984185]},"properties":{"name":"Rhenenhof","description":"bus_stop","_styleId":"bus"}},{"type":"Feature","geometry":{"type":"Point","coordinates":[4.827531,52.340706]},"properties":{"name":"IBM","description":"bus_stop","_styleId":"bus"}},{"type":"Feature","geometry":{"type":"Point","coordinates":[4.9525964,52.2936787]},"properties":{"name":"Meibergdreef","description":"bus_stop","_styleId":"bus"}},{"type":"Feature","geometry":{"type":"Point","coordinates":[4.9622801,52.2870185]},"properties":{"name":"Weltevreden","description":"bus_stop","_styleId":"bus"}},{"type":"Feature","geometry":{"type":"Point","coordinates":[4.9622703,52.2867559]},"properties":{"name":"Weltevreden","description":"bus_stop","_styleId":"bus"}},{"type":"Feature","geometry":{"type":"Point","coordinates":[4.956003,52.2913613]},"properties":{"name":"AZUA","description":"bus_stop","_styleId":"bus"}},{"type":"Feature","geometry":{"type":"Point","coordinates":[4.9550854,52.2916383]},"properties":{"name":"AZUA","description":"bus_stop","_styleId":"bus"}},{"type":"Feature","geometry":{"type":"Point","coordinates":[4.9662959,52.2807688]},"properties":{"name":"Abcoudermeer","description":"bus_stop","_styleId":"bus"}},{"type":"Feature","geometry":{"type":"Point","coordinates":[4.9660251,52.2814407]},"properties":{"name":"Abcoudermeer","description":"bus_stop","_styleId":"bus"}},{"type":"Feature","geometry":{"type":"Point","coordinates":[4.9469433,52.3029191]},"properties":{"name":"Laarderhoogtweg","description":"bus_stop","_styleId":"bus"}},{"type":"Feature","geometry":{"type":"Point","coordinates":[4.9480058,52.3031473]},"properties":{"name":"Laarderhoogtweg","description":"bus_stop","_styleId":"bus"}},{"type":"Feature","geometry":{"type":"Point","coordinates":[4.9558973,52.2967768]},"properties":{"name":"Paasheuvelweg","description":"bus_stop","_styleId":"bus"}},{"type":"Feature","geometry":{"type":"Point","coordinates":[4.9550167,52.2962493]},"properties":{"name":"Paasheuvelweg","description":"bus_stop","_styleId":"bus"}},{"type":"Feature","geometry":{"type":"Point","coordinates":[4.9444589,52.3071207]},"properties":{"name":"Gebouw Atlas","description":"bus_stop","_styleId":"bus"}},{"type":"Feature","geometry":{"type":"Point","coordinates":[4.949038,52.3143431]},"properties":{"name":"Bijlmerplein","description":"bus_stop","_styleId":"bus"}},{"type":"Feature","geometry":{"type":"Point","coordinates":[4.9495425,52.3142756]},"properties":{"name":"Bijlmerplein","description":"bus_stop","_styleId":"bus"}},{"type":"Feature","geometry":{"type":"Point","coordinates":[4.9475131,52.3432154]},"properties":{"name":"Brinkstraat","description":"bus_stop","_styleId":"bus"}},{"type":"Feature","geometry":{"type":"Point","coordinates":[4.9718412,52.3276491]},"properties":{"name":"Provincialeweg","description":"bus_stop","_styleId":"bus"}},{"type":"Feature","geometry":{"type":"Point","coordinates":[4.9512683,52.3219772]},"properties":{"name":"Dennenrode","description":"bus_stop","_styleId":"bus"}},{"type":"Feature","geometry":{"type":"Point","coordinates":[4.9404764,52.3476259]},"properties":{"name":"Kruislaan","description":"bus_stop","_styleId":"bus"}},{"type":"Feature","geometry":{"type":"Point","coordinates":[4.9338365,52.350194]},"properties":{"name":"Middenweg","description":"bus_stop","_styleId":"bus"}},{"type":"Feature","geometry":{"type":"Point","coordinates":[4.9727329,52.3279702]},"properties":{"name":"Provincialeweg","description":"bus_stop","_styleId":"bus"}},{"type":"Feature","geometry":{"type":"Point","coordinates":[4.9518619,52.3219191]},"properties":{"name":"Dennenrode","description":"bus_stop","_styleId":"bus"}},{"type":"Feature","geometry":{"type":"Point","coordinates":[4.9781864,52.3336556]},"properties":{"name":"Vinkenbrug","description":"bus_stop","_styleId":"bus"}},{"type":"Feature","geometry":{"type":"Point","coordinates":[4.9788198,52.3337254]},"properties":{"name":"Vinkenbrug","description":"bus_stop","_styleId":"bus"}},{"type":"Feature","geometry":{"type":"Point","coordinates":[4.9345556,52.3504166]},